{
  "id": "3352",
  "short_name": "6",
  "long_name": "Indian School Commuter",
  "color": "E171E1",
  "text_color": "000000",
  "schedules": {
    "1": {
      "start_date": "20191130",
      "end_date": "20200515",
      "days_mask_mon_sun": 124,"added_days":[],"removed_days":["20191224","20191225","20200101","20200120"
      ]
    }
  },
  "related_route_data": {"3325":{"short_name":"1","long_name":"Juan Tabo","color":"E17F38","text_color":"000000"
    },"3337":{"short_name":"2","long_name":"Eubank-Ventura","color":"DC5D2E","text_color":"000000"
    },"3346":{"short_name":"5","long_name":"Montgomery/Carlisle","color":"FF4E21","text_color":"000000"
    },"3352":{"short_name":"6","long_name":"Indian School Commuter","color":"E171E1","text_color":"000000"
    },"3354":{"short_name":"7","long_name":"Candelaria Commuter","color":"FF7F54","text_color":"000000"
    },"3358":{"short_name":"8","long_name":"Menaul","color":"7B097B","text_color":"FFFFFF"
    },"3326":{"short_name":"10","long_name":"North Fourth Street","color":"C30000","text_color":"FFFFFF"
    },"3327":{"short_name":"11","long_name":"Lomas","color":"800080","text_color":"FFFFFF"
    },"3328":{"short_name":"12","long_name":"Constitution Commuter","color":"B7FF00","text_color":"000000"
    },"3329":{"short_name":"13","long_name":"Comanche Commuter","color":"006267","text_color":"FFFFFF"
    },"3334":{"short_name":"16","long_name":"University/Gibson/Broadway","color":"C01D8C","text_color":"FFFFFF"
    },"3342":{"short_name":"31","long_name":"Wyoming","color":"852300","text_color":"FFFFFF"
    },"3343":{"short_name":"34","long_name":"San Pedro Commuter","color":"FF9E00","text_color":"000000"
    },"3344":{"short_name":"36","long_name":"12th Street/Rio Grande","color":"800000","text_color":"FFFFFF"
    },"3345":{"short_name":"37","long_name":"Rio Grande/12th Street","color":"800000","text_color":"FFFFFF"
    },"3347":{"short_name":"50","long_name":"Airport/Downtown","color":"71220F","text_color":"FFFFFF"
    },"3349":{"short_name":"53","long_name":"Isleta","color":"2390CF","text_color":"000000"
    },"3350":{"short_name":"54","long_name":"Bridge/Westgate","color":"006097","text_color":"FFFFFF"
    },"3353":{"short_name":"66","long_name":"Central Avenue","color":"00DEC8","text_color":"000000"
    },"3359":{"short_name":"92","long_name":"Taylor Ranch Express","color":"D43815","text_color":"FFFFFF"
    },"3360":{"short_name":"93","long_name":"Academy Commuter","color":"9494FF","text_color":"000000"
    },"3361":{"short_name":"94","long_name":"Unser Commuter","color":"3988FF","text_color":"000000"
    },"3363":{"short_name":"97","long_name":"Zuni Express","color":"6600FF","text_color":"FFFFFF"
    },"3364":{"short_name":"98","long_name":"Wyoming Commuter","color":"005B3C","text_color":"FFFFFF"
    },"3330":{"short_name":"140","long_name":"San Mateo / CNM Work Force","color":"420080","text_color":"FFFFFF"
    },"3331":{"short_name":"141","long_name":"San Mateo","color":"7E0080","text_color":"FFFFFF"
    },"3333":{"short_name":"157","long_name":"Cottonwood/Montano/UTC","color":"008047","text_color":"FFFFFF"
    },"3338":{"short_name":"217","long_name":"Downtown-KAFB Ltd.","color":"FDDC00","text_color":"000000"
    },"3340":{"short_name":"250","long_name":"Airport/Downtown Express","color":"F34C00","text_color":"000000"
    },"3367":{"short_name":"766","long_name":"ART Red Line","color":"EC0000","text_color":"FFFFFF"
    },"3366":{"short_name":"777","long_name":"ART Green Line","color":"00FF00","text_color":"000000"
    }
  },
  "stops": {"1096":{"name":"Wyoming @ Indian School","desc":"1722 WYOMING BLVD NE \u0026 INDIAN SCHOOL RD NE","coordinates":[-106.5506,35.1017],"related_stops":["1229","1231","1097","1096","3593","3591","3683"],"transfer_routes":["3342"],"related_routes":["3352","3364"]
    },"1097":{"name":"Wyoming @ Northeastern","desc":"WYOMING BLVD NE \u0026 NORTHEASTERN BLVD NE","coordinates":[-106.5506,35.1035],"related_stops":["1229","1231","1097","1096","3593","3591","3683"],"transfer_routes":["3342"],"related_routes":["3352","3364"]
    },"1229":{"name":"Wyoming @ Northeastern","desc":"2023 WYOMING BLVD NE","coordinates":[-106.551,35.1046],"related_stops":["1229","1231","1097","1096","3593","3591","3683"],"transfer_routes":["3342"],"related_routes":["3352","3364"]
    },"1231":{"name":"Wyoming @ Indian School","desc":"1809 WYOMING BLVD NE \u0026 MORROW AVE NE","coordinates":[-106.5509,35.1025],"related_stops":["1229","1231","1097","1096","3593","3591","3683"],"transfer_routes":["3342","3364"],"related_routes":["3352"]
    },"1573":{"name":"2nd @ Lomas","desc":"607 2ND ST NW","coordinates":[-106.6482,35.09],"related_stops":["3517","1573","6968"],"transfer_routes":["3346","3352","3354","3326","3327","3329","3359","3360","3361"],"related_routes":[]
    },"1575":{"name":"(Albuquerque Convention Center) 2nd @ Marquette","desc":"385 2ND ST NW \u0026 MARQUETTE AVE NW","coordinates":[-106.6487,35.0877],"related_stops":["1575","6966"],"transfer_routes":["3346","3352","3354","3326","3327","3328","3329","3334","3347","3359","3360","3361"],"related_routes":[]
    },"1729":{"name":"2nd @ Copper","desc":"209 2ND ST NW \u0026 COPPER AVE NW","coordinates":[-106.6491,35.0855],"related_stops":["1729","7022"],"transfer_routes":["3346","3352","3354","3326","3327","3328","3329","3334","3347","3360","3361"],"related_routes":["3359"]
    },"1965":{"name":"Juan Tabo @ Indian School","desc":"1736 JUAN TABO BLVD NE","coordinates":[-106.5153,35.1007],"related_stops":["1965","7232","2065","3615","3613","3659"],"transfer_routes":["3325"],"related_routes":["3352"]
    },"2065":{"name":"Juan Tabo @ Indian School","desc":"1801 JUAN TABO BLVD NE \u0026 INDIAN SCHOOL RD NE","coordinates":[-106.5156,35.1016],"related_stops":["1965","7232","2065","3615","3613","3659"],"transfer_routes":["3325"],"related_routes":["3352"]
    },"2151":{"name":"Eubank @ Indian School","desc":"1692 EUBANK BLVD NE","coordinates":[-106.5327,35.1003],"related_stops":["2323","2321","3671","3667","2153","2151","3603","3605","2325","3601","3673"],"transfer_routes":["3337"],"related_routes":["3352"]
    },"2153":{"name":"Eubank @ Indian School","desc":"1812 EUBANK BLVD NE","coordinates":[-106.5328,35.1022],"related_stops":["2323","2321","3671","3667","2153","2151","3603","3605","2325","3601","3673"],"transfer_routes":["3337"],"related_routes":["3352"]
    },"2321":{"name":"Eubank @ Indian School","desc":"1913 EUBANK BLVD NE","coordinates":[-106.5331,35.1022],"related_stops":["2323","2321","3671","3667","2153","2151","3603","3605","2325","3601","3673"],"transfer_routes":["3337"],"related_routes":["3352"]
    },"2323":{"name":"Eubank @ Indian School","desc":"1763 EUBANK BLVD NE \u0026 MCKNIGHT AVE NE","coordinates":[-106.533,35.1012],"related_stops":["2323","2321","3671","3667","2153","2151","3603","3605","2325","3601","3673"],"transfer_routes":["3337"],"related_routes":["3352"]
    },"2325":{"name":"Eubank @ Indian School","desc":"1661 EUBANK BLVD NE","coordinates":[-106.533,35.0998],"related_stops":["2323","2321","3671","3667","2153","2151","3603","3605","2325","3601","3673"],"transfer_routes":["3337"],"related_routes":["3352"]
    },"2751":{"name":"Americas Pkwy @ U.T.C.","desc":"2227 AMERICAS PKWY NE","coordinates":[-106.5718,35.1031],"related_stops":["3581","2847","4605","3901","2751","6048","3259"],"transfer_routes":["3333"],"related_routes":["3352","3358","3328","3343","3367"]
    },"2845":{"name":"Americas Parkway @ Louisiana","desc":"6607 AMERICAS PKWY NE \u0026 MARRIOTT DR NE","coordinates":[-106.5705,35.1],"related_stops":["7696","2845"],"transfer_routes":["3352","3333"],"related_routes":["3328"]
    },"2847":{"name":"Americas Pkwy @ U.T.C.","desc":"2232 AMERICAS PKWY NE \u0026 UPTOWN BLVD NE","coordinates":[-106.5716,35.1034],"related_stops":["3581","2847","4605","3901","2751","6048","3259"],"transfer_routes":["3333"],"related_routes":["3352","3358","3328","3343","3367"]
    },"3259":{"name":"U.T.C. Bay B","desc":"","coordinates":[-106.5712,35.1029],"related_stops":["3581","2847","4605","3901","2751","6048","3259"],"transfer_routes":["3358"],"related_routes":["3352","3328","3343","3333","3367"]
    },"3517":{"name":"Lomas @ 1st","desc":"108 LOMAS BLVD NW \u0026 1ST ST NW","coordinates":[-106.6472,35.0907],"related_stops":["3517","1573","6968"],"transfer_routes":["3352","3327"],"related_routes":["3346","3354","3326","3329","3359","3360","3361"]
    },"3519":{"name":"Broadway @ Lomas","desc":"810 BROADWAY BLVD NE","coordinates":[-106.6431,35.0907],"related_stops":["5091","3755","4849","3519","4851","7686","5089"],"transfer_routes":["3352","3334"],"related_routes":["3327"]
    },"3521":{"name":"Broadway @ Mountain","desc":"1116 BROADWAY BLVD NE \u0026 GRANITE AVE NE","coordinates":[-106.6426,35.0938],"related_stops":["5095","3751","5107","3521","5105","5097","5099"],"transfer_routes":["3352","3334"],"related_routes":["3346"]
    },"3523":{"name":"Broadway @ Rosemont","desc":"1312 BROADWAY BLVD NE \u0026 ROSEMONT AVE NE","coordinates":[-106.6422,35.0956],"related_stops":["3523","3749"],"transfer_routes":["3352","3334"],"related_routes":[]
    },"3529":{"name":"Odelia @ Edith","desc":"520 ODELIA RD NE \u0026 EDITH BLVD NE","coordinates":[-106.6388,35.099],"related_stops":["3529","3745"],"transfer_routes":["3352","3334"],"related_routes":[]
    },"3531":{"name":"Odelia @ I 25 Frontage Rd.","desc":"1008 INDIAN SCHOOL RD NE \u0026 LOCUST PL NE","coordinates":[-106.6349,35.0984],"related_stops":["3531","3743"],"transfer_routes":["3352","3334"],"related_routes":[]
    },"3533":{"name":"Indian School @ University","desc":"1656 INDIAN SCHOOL RD NE","coordinates":[-106.6266,35.0994],"related_stops":["3741","3533","6324"],"transfer_routes":["3352"],"related_routes":["3334"]
    },"3535":{"name":"Indian School @ Harvard","desc":"2414 INDIAN SCHOOL RD NE","coordinates":[-106.6208,35.1019],"related_stops":["3535","3739","3737"],"transfer_routes":["3352"],"related_routes":[]
    },"3537":{"name":"Indian School @ Princeton","desc":"2624 INDIAN SCHOOL RD NE","coordinates":[-106.6163,35.1019],"related_stops":["3537","3735"],"transfer_routes":["3352"],"related_routes":[]
    },"3539":{"name":"Indian School @ Girard","desc":"2902 INDIAN SCHOOL RD NE \u0026 GIRARD BLVD NE","coordinates":[-106.6127,35.1019],"related_stops":["3539","3733"],"transfer_routes":["3352"],"related_routes":[]
    },"3541":{"name":"Indian School @ Richmond","desc":"3116 INDIAN SCHOOL RD NE \u0026 BRYN MAWR DR NE","coordinates":[-106.6105,35.1019],"related_stops":["3541","3731"],"transfer_routes":["3352"],"related_routes":[]
    },"3543":{"name":"Indian School @ Lafayette","desc":"3202 INDIAN SCHOOL RD NE \u0026 LAFAYETTE DR NE","coordinates":[-106.6079,35.1019],"related_stops":["3725","3547","3545","6226","6276","3723","3727","3729","3543"],"transfer_routes":["3352"],"related_routes":["3346"]
    },"3545":{"name":"Indian School @ Carlisle","desc":"3444 INDIAN SCHOOL RD NE","coordinates":[-106.6055,35.1019],"related_stops":["3725","3547","3545","6226","6276","3723","3727","3729","3543"],"transfer_routes":["3352"],"related_routes":["3346"]
    },"3547":{"name":"Indian School @ Carlisle","desc":"3660 INDIAN SCHOOL RD NE \u0026 HERMOSA DR NE","coordinates":[-106.6036,35.1019],"related_stops":["3725","3547","3545","6226","6276","3723","3727","3729","3543"],"transfer_routes":["3352"],"related_routes":["3346"]
    },"3549":{"name":"Indian School @ Solano","desc":"3830 INDIAN SCHOOL RD NE \u0026 SOLANO DR NE","coordinates":[-106.6019,35.1019],"related_stops":["3549"],"transfer_routes":["3352"],"related_routes":[]
    },"3551":{"name":"Indian School @ Morningside","desc":"4080 INDIAN SCHOOL RD NE","coordinates":[-106.5996,35.1019],"related_stops":["3551","3719"],"transfer_routes":["3352"],"related_routes":[]
    },"3553":{"name":"Indian School @ Washington","desc":"4434 INDIAN SCHOOL RD NE \u0026 WASHINGTON ST NE","coordinates":[-106.5949,35.1018],"related_stops":["3717","3553","3555","3715"],"transfer_routes":["3352"],"related_routes":[]
    },"3555":{"name":"Indian School @ Jefferson","desc":"4622 INDIAN SCHOOL RD NE \u0026 JEFFERSON ST NE","coordinates":[-106.5931,35.1018],"related_stops":["3717","3553","3555","3715"],"transfer_routes":["3352"],"related_routes":[]
    },"3557":{"name":"Indian School @ Madison","desc":"4852 INDIAN SCHOOL RD NE","coordinates":[-106.591,35.1018],"related_stops":["3711","3713","6548","3561","6714","3557","3563"],"transfer_routes":["3352"],"related_routes":["3330","3331"]
    },"3561":{"name":"Indian School @ San Mateo","desc":"5102 INDIAN SCHOOL RD NE \u0026 SAN MATEO BLVD NE","coordinates":[-106.5868,35.1018],"related_stops":["3711","3713","6548","3561","6714","3557","3563"],"transfer_routes":["3352"],"related_routes":["3330","3331"]
    },"3563":{"name":"Indian School @ Madeira","desc":"INDIAN SCHOOL \u0026 MADEIRA","coordinates":[-106.5857,35.1018],"related_stops":["3711","3713","6548","3561","6714","3557","3563"],"transfer_routes":["3352"],"related_routes":["3330","3331"]
    },"3565":{"name":"Indian School @ La Veta","desc":"5414 INDIAN SCHOOL RD NE \u0026 LA VETA DR NE","coordinates":[-106.584,35.1018],"related_stops":["3565","3707"],"transfer_routes":["3352"],"related_routes":[]
    },"3567":{"name":"Indian School @ Alvarado","desc":"5604 INDIAN SCHOOL RD NE \u0026 ALVARADO DR NE","coordinates":[-106.5818,35.1018],"related_stops":["3567","3705"],"transfer_routes":["3352"],"related_routes":[]
    },"3569":{"name":"Indian School @ Valencia","desc":"5790 INDIAN SCHOOL RD NE","coordinates":[-106.5797,35.1013],"related_stops":["3569"],"transfer_routes":["3352"],"related_routes":[]
    },"3571":{"name":"Indian School @ Haines","desc":"INDIAN SCHOOL RD NE","coordinates":[-106.5788,35.1006],"related_stops":["3703","3571","6046","3701","6168","6044"],"transfer_routes":["3352"],"related_routes":["3343"]
    },"3573":{"name":"Indian School @ San Pedro","desc":"6026 INDIAN SCHOOL RD NE \u0026 SAN PEDRO DR NE","coordinates":[-106.5771,35.1035],"related_stops":["3573","3575","3699"],"transfer_routes":["3352","3343"],"related_routes":[]
    },"3575":{"name":"Indian School @ San Pedro","desc":"6080 INDIAN SCHOOL RD NE","coordinates":[-106.5763,35.1031],"related_stops":["3573","3575","3699"],"transfer_routes":["3352","3343"],"related_routes":[]
    },"3577":{"name":"Indian School @ Americas Parkway","desc":"6260 INDIAN SCHOOL RD NE","coordinates":[-106.5749,35.1019],"related_stops":["3697","3579","3577","3695"],"transfer_routes":["3352","3343"],"related_routes":[]
    },"3579":{"name":"Indian School @ Americas Parkway","desc":"6384 INDIAN SCHOOL RD NE","coordinates":[-106.5723,35.1017],"related_stops":["3697","3579","3577","3695"],"transfer_routes":["3352","3343"],"related_routes":[]
    },"3581":{"name":"U.T.C. Bay A","desc":"","coordinates":[-106.571,35.1029],"related_stops":["3581","2847","4605","3901","2751","6048","3259"],"transfer_routes":["3352"],"related_routes":["3358","3328","3343","3333","3367"]
    },"3583":{"name":"Indian School @ Uptown Loop","desc":"7068 INDIAN SCHOOL RD NE \u0026 WINROCK LOOP NE","coordinates":[-106.5647,35.1018],"related_stops":["3693","3583","4607","7158"],"transfer_routes":["3352","3328"],"related_routes":["3367"]
    },"3585":{"name":"Indian School @ Pennsylvania","desc":"7722 INDIAN SCHOOL RD NE \u0026 PENNSYLVANIA ST NE","coordinates":[-106.5593,35.1018],"related_stops":["3587","3585","3689","3903","3691","4009"],"transfer_routes":["3352"],"related_routes":["3328"]
    },"3587":{"name":"Indian School @ Hoffman","desc":"7850 INDIAN SCHOOL RD NE \u0026 HOFFMAN DR NE","coordinates":[-106.5567,35.1019],"related_stops":["3587","3585","3689","3903","3691","4009"],"transfer_routes":["3352"],"related_routes":["3328"]
    },"3589":{"name":"Indian School @ Utah","desc":"8104 INDIAN SCHOOL RD NE \u0026 UTAH ST NE","coordinates":[-106.5542,35.1019],"related_stops":["3589","3687"],"transfer_routes":["3352"],"related_routes":[]
    },"3591":{"name":"Indian School @ Wyoming","desc":"8412 INDIAN SCHOOL RD NE \u0026 WYOMING BLVD NE","coordinates":[-106.5511,35.1019],"related_stops":["1229","1231","1097","1096","3593","3591","3683"],"transfer_routes":["3352"],"related_routes":["3342","3364"]
    },"3593":{"name":"Indian School @ Wyoming","desc":"8504 INDIAN SCHOOL RD NE \u0026 WYOMING BLVD NE","coordinates":[-106.5503,35.1019],"related_stops":["1229","1231","1097","1096","3593","3591","3683"],"transfer_routes":["3352"],"related_routes":["3342","3364"]
    },"3595":{"name":"Indian School @ Luthy","desc":"INDIAN SCHOOL RD NE \u0026 LUTHY DR NE","coordinates":[-106.5474,35.1019],"related_stops":["3595","3681"],"transfer_routes":["3352"],"related_routes":[]
    },"3597":{"name":"Indian School @ Moon","desc":"9136 INDIAN SCHOOL RD NE \u0026 SOMERVELL ST NE","coordinates":[-106.5426,35.1018],"related_stops":["3597","3677","3599","3675"],"transfer_routes":["3352"],"related_routes":[]
    },"3599":{"name":"Indian School @ Moon","desc":"9330 INDIAN SCHOOL RD NE \u0026 MOON ST NE","coordinates":[-106.5414,35.1018],"related_stops":["3597","3677","3599","3675"],"transfer_routes":["3352"],"related_routes":[]
    },"3601":{"name":"Indian School @ Parsifal","desc":"9708 INDIAN SCHOOL RD NE \u0026 PARSIFAL ST NE","coordinates":[-106.5369,35.1017],"related_stops":["2323","2321","3671","3667","2153","2151","3603","3605","2325","3601","3673"],"transfer_routes":["3352"],"related_routes":["3337"]
    },"3603":{"name":"Indian School @ Eubank","desc":"9910 INDIAN SCHOOL RD NE","coordinates":[-106.5338,35.1016],"related_stops":["2323","2321","3671","3667","2153","2151","3603","3605","2325","3601","3673"],"transfer_routes":["3352"],"related_routes":["3337"]
    },"3605":{"name":"Indian School @ Eubank","desc":"10048 INDIAN SCHOOL RD NE \u0026 EUBANK BLVD NE","coordinates":[-106.5325,35.1016],"related_stops":["2323","2321","3671","3667","2153","2151","3603","3605","2325","3601","3673"],"transfer_routes":["3352"],"related_routes":["3337"]
    },"3607":{"name":"Indian School @ Blume","desc":"10504 INDIAN SCHOOL RD NE \u0026 BLUME ST NE","coordinates":[-106.5287,35.1016],"related_stops":["3607","3665"],"transfer_routes":["3352"],"related_routes":[]
    },"3611":{"name":"Indian School @ Tomasita","desc":"11504 INDIAN SCHOOL RD NE \u0026 TOMASITA ST NE","coordinates":[-106.5195,35.1015],"related_stops":["3611","3661"],"transfer_routes":["3352"],"related_routes":[]
    },"3613":{"name":"Indian School @ Juan Tabo","desc":"INDIAN SCHOOL \u0026 JUAN TABO","coordinates":[-106.5159,35.1014],"related_stops":["1965","7232","2065","3615","3613","3659"],"transfer_routes":["3352"],"related_routes":["3325"]
    },"3615":{"name":"Indian School @ Juan Tabo","desc":"INDIAN SCHOOL \u0026 JUAN TABO","coordinates":[-106.515,35.1014],"related_stops":["1965","7232","2065","3615","3613","3659"],"transfer_routes":["3352"],"related_routes":["3325"]
    },"3617":{"name":"Indian School @ Kirby","desc":"12006 INDIAN SCHOOL RD NE \u0026 KIRBY ST NE","coordinates":[-106.5128,35.1013],"related_stops":["3617","3655"],"transfer_routes":["3352"],"related_routes":[]
    },"3619":{"name":"Indian School @ Zena Lona","desc":"12202 INDIAN SCHOOL RD NE \u0026 ZENA LONA ST NE","coordinates":[-106.5106,35.1012],"related_stops":["3619","3653"],"transfer_routes":["3352"],"related_routes":[]
    },"3621":{"name":"Indian School @ Figueroa","desc":"12224 INDIAN SCHOOL RD NE \u0026 FIGUEROA ST NE","coordinates":[-106.5084,35.1011],"related_stops":["3625","3649","3623","3651","3621"],"transfer_routes":["3352"],"related_routes":["3328"]
    },"3623":{"name":"Indian School @ Chelwood Park","desc":"12314 INDIAN SCHOOL RD NE \u0026 CHELWOOD PARK BLVD NE","coordinates":[-106.5061,35.101],"related_stops":["3625","3649","3623","3651","3621"],"transfer_routes":["3352","3328"],"related_routes":[]
    },"3625":{"name":"Indian School @ Chelwood Park","desc":"12600 INDIAN SCHOOL RD NE \u0026 IROQUOIS PL NE","coordinates":[-106.5035,35.0988],"related_stops":["3625","3649","3623","3651","3621"],"transfer_routes":["3352","3328"],"related_routes":[]
    },"3627":{"name":"Indian School @ Eastridge","desc":"12700 INDIAN SCHOOL RD NE","coordinates":[-106.5026,35.0973],"related_stops":["3627","3647"],"transfer_routes":["3352","3328"],"related_routes":[]
    },"3631":{"name":"Indian School @ Constitution","desc":"12904 INDIAN SCHOOL RD NE","coordinates":[-106.4997,35.0948],"related_stops":["3645","3957","3959","3631"],"transfer_routes":["3352"],"related_routes":["3328"]
    },"3633":{"name":"Rover @ Tramway","desc":"12830 ROVER AVE NE \u0026 KACHINA PL NE","coordinates":[-106.4967,35.1027],"related_stops":["3633"],"transfer_routes":["3352"],"related_routes":[]
    },"3635":{"name":"Rover @ White Cloud","desc":"13040 ROVER AVE NE \u0026 WHITE CLOUD ST NE","coordinates":[-106.4941,35.1029],"related_stops":["3635"],"transfer_routes":["3352"],"related_routes":[]
    },"3637":{"name":"Monte Largo @ Rover","desc":"1811 MONTE LARGO DR NE","coordinates":[-106.493,35.102],"related_stops":["3637"],"transfer_routes":["3352"],"related_routes":[]
    },"3639":{"name":"Monte Largo @ El Vado","desc":"1557 MONTE LARGO DR NE \u0026 EL VADO AVE NE","coordinates":[-106.4933,35.0963],"related_stops":["3639"],"transfer_routes":["3352"],"related_routes":[]
    },"3641":{"name":"Indian School @ Monte Largo","desc":"13127 INDIAN SCHOOL RD NE \u0026 MONTE ALTO DR NE","coordinates":[-106.4942,35.0948],"related_stops":["3641"],"transfer_routes":["3352"],"related_routes":[]
    },"3643":{"name":"Indian School @ Tramway","desc":"12981 INDIAN SCHOOL RD NE","coordinates":[-106.4972,35.0949],"related_stops":["3643"],"transfer_routes":["3352"],"related_routes":[]
    },"3645":{"name":"Indian School @ Constitution","desc":"12833 INDIAN SCHOOL RD NE","coordinates":[-106.5008,35.0956],"related_stops":["3645","3957","3959","3631"],"transfer_routes":["3352"],"related_routes":["3328"]
    },"3647":{"name":"Indian School @ Eastridge","desc":"12701 INDIAN SCHOOL RD NE \u0026 EASTRIDGE DR NE","coordinates":[-106.502,35.0969],"related_stops":["3627","3647"],"transfer_routes":["3352"],"related_routes":["3328"]
    },"3649":{"name":"Indian School @ Indian","desc":"12505 INDIAN SCHOOL RD NE \u0026 INDIAN TRL NE","coordinates":[-106.5037,35.0993],"related_stops":["3625","3649","3623","3651","3621"],"transfer_routes":["3352"],"related_routes":["3328"]
    },"3651":{"name":"Indian School @ Chelwood","desc":"INDIAN SCHOOL RD NE","coordinates":[-106.5072,35.1012],"related_stops":["3625","3649","3623","3651","3621"],"transfer_routes":["3352"],"related_routes":["3328"]
    },"3653":{"name":"Indian School @ Zena Lona","desc":"INDIAN SCHOOL RD NE \u0026 ZENA LONA ST NE","coordinates":[-106.5107,35.1013],"related_stops":["3619","3653"],"transfer_routes":["3352"],"related_routes":[]
    },"3655":{"name":"Indian School @ Kirby","desc":"11917 INDIAN SCHOOL RD NE \u0026 KIRBY ST NE","coordinates":[-106.5129,35.1014],"related_stops":["3617","3655"],"transfer_routes":["3352"],"related_routes":[]
    },"3659":{"name":"Indian School @ Juan Tabo","desc":"11711 INDIAN SCHOOL RD NE \u0026 JUAN TABO BLVD NE","coordinates":[-106.5159,35.1015],"related_stops":["1965","7232","2065","3615","3613","3659"],"transfer_routes":["3352"],"related_routes":["3325"]
    },"3661":{"name":"Indian School @ Shirley","desc":"11407 INDIAN SCHOOL RD NE \u0026 TOMASITA ST NE","coordinates":[-106.5199,35.1016],"related_stops":["3611","3661"],"transfer_routes":["3352"],"related_routes":[]
    },"3665":{"name":"Indian School @ Britt","desc":"10509 INDIAN SCHOOL RD NE \u0026 BRITT ST NE","coordinates":[-106.528,35.1017],"related_stops":["3607","3665"],"transfer_routes":["3352"],"related_routes":[]
    },"3667":{"name":"Indian School @ Eubank","desc":"10039 INDIAN SCHOOL RD NE \u0026 EUBANK BLVD NE","coordinates":[-106.5325,35.1018],"related_stops":["2323","2321","3671","3667","2153","2151","3603","3605","2325","3601","3673"],"transfer_routes":["3352"],"related_routes":["3337"]
    },"3671":{"name":"Indian School @ Eubank","desc":"9807 INDIAN SCHOOL RD NE","coordinates":[-106.5357,35.1018],"related_stops":["2323","2321","3671","3667","2153","2151","3603","3605","2325","3601","3673"],"transfer_routes":["3352"],"related_routes":["3337"]
    },"3673":{"name":"Indian School @ Parsifal","desc":"9595 INDIAN SCHOOL RD NE \u0026 PARSIFAL ST NE","coordinates":[-106.5377,35.1019],"related_stops":["2323","2321","3671","3667","2153","2151","3603","3605","2325","3601","3673"],"transfer_routes":["3352"],"related_routes":["3337"]
    },"3675":{"name":"Indian School @ Moon","desc":"9363 INDIAN SCHOOL RD NE","coordinates":[-106.5409,35.102],"related_stops":["3597","3677","3599","3675"],"transfer_routes":["3352"],"related_routes":[]
    },"3677":{"name":"Indian School @ Saint","desc":"9019 INDIAN SCHOOL RD NE \u0026 BELLEHAVEN AVE NE","coordinates":[-106.5433,35.102],"related_stops":["3597","3677","3599","3675"],"transfer_routes":["3352"],"related_routes":[]
    },"3679":{"name":"Indian School @ Childers","desc":"8815 INDIAN SCHOOL RD NE \u0026 CHILDERS DR NE","coordinates":[-106.5449,35.102],"related_stops":["3679"],"transfer_routes":["3352"],"related_routes":[]
    },"3681":{"name":"Indian School @ Luthy","desc":"8613 INDIAN SCHOOL RD NE \u0026 LUTHY DR NE","coordinates":[-106.5471,35.1021],"related_stops":["3595","3681"],"transfer_routes":["3352"],"related_routes":[]
    },"3683":{"name":"Indian School @ Wyoming","desc":"8505 INDIAN SCHOOL RD NE \u0026 WYOMING BLVD NE","coordinates":[-106.5504,35.1021],"related_stops":["1229","1231","1097","1096","3593","3591","3683"],"transfer_routes":["3352"],"related_routes":["3342","3364"]
    },"3685":{"name":"Indian School @ Wisconsin","desc":"8307 INDIAN SCHOOL RD NE \u0026 VIRGINIA ST NE","coordinates":[-106.5524,35.1021],"related_stops":["3685"],"transfer_routes":["3352"],"related_routes":[]
    },"3687":{"name":"Indian School @ Utah","desc":"7915 INDIAN SCHOOL RD NE \u0026 INEZ DR NE","coordinates":[-106.5553,35.102],"related_stops":["3589","3687"],"transfer_routes":["3352"],"related_routes":[]
    },"3689":{"name":"Indian School @ Hoffman","desc":"7783 INDIAN SCHOOL RD NE \u0026 HOFFMAN DR NE","coordinates":[-106.5582,35.102],"related_stops":["3587","3585","3689","3903","3691","4009"],"transfer_routes":["3352"],"related_routes":["3328"]
    },"3691":{"name":"Indian School @ Pennsylvania","desc":"7525 INDIAN SCHOOL RD NE \u0026 WINROCK LOOP NE","coordinates":[-106.5611,35.102],"related_stops":["3587","3585","3689","3903","3691","4009"],"transfer_routes":["3352","3328"],"related_routes":[]
    },"3693":{"name":"Indian School @ Uptown Loop","desc":"7085 INDIAN SCHOOL RD NE","coordinates":[-106.5646,35.102],"related_stops":["3693","3583","4607","7158"],"transfer_routes":["3352","3328"],"related_routes":["3367"]
    },"3695":{"name":"Indian School @ Americas Parkway","desc":"6375 INDIAN SCHOOL RD NE","coordinates":[-106.5722,35.1019],"related_stops":["3697","3579","3577","3695"],"transfer_routes":["3352","3343"],"related_routes":[]
    },"3697":{"name":"Indian School @ Americas Parkway","desc":"6297 INDIAN SCHOOL RD NE","coordinates":[-106.574,35.102],"related_stops":["3697","3579","3577","3695"],"transfer_routes":["3352","3343"],"related_routes":[]
    },"3699":{"name":"San Pedro @ Indian School","desc":"2211 SAN PEDRO DR NE \u0026 INDIAN SCHOOL RD NE","coordinates":[-106.5777,35.1033],"related_stops":["3573","3575","3699"],"transfer_routes":["3352","3343"],"related_routes":[]
    },"3701":{"name":"Haines @ Indian School","desc":"5901 HAINES AVE NE \u0026 INDIAN SCHOOL RD NE","coordinates":[-106.5781,35.1002],"related_stops":["3703","3571","6046","3701","6168","6044"],"transfer_routes":["3352"],"related_routes":["3343"]
    },"3703":{"name":"Indian School @ Haines","desc":"5865 INDIAN SCHOOL RD NE","coordinates":[-106.5786,35.1007],"related_stops":["3703","3571","6046","3701","6168","6044"],"transfer_routes":["3352"],"related_routes":["3343"]
    },"3705":{"name":"Indian School @ Alvarado","desc":"5517 INDIAN SCHOOL RD NE \u0026 ALVARADO DR NE","coordinates":[-106.5823,35.102],"related_stops":["3567","3705"],"transfer_routes":["3352"],"related_routes":[]
    },"3707":{"name":"Indian School @ La Veta","desc":"5413 INDIAN SCHOOL RD NE \u0026 LA VETA DR NE","coordinates":[-106.584,35.102],"related_stops":["3565","3707"],"transfer_routes":["3352"],"related_routes":[]
    },"3711":{"name":"Indian School @ San Mateo","desc":"5101 INDIAN SCHOOL RD NE \u0026 TRUMAN ST NE","coordinates":[-106.5872,35.102],"related_stops":["3711","3713","6548","3561","6714","3557","3563"],"transfer_routes":["3352"],"related_routes":["3330","3331"]
    },"3713":{"name":"Indian School @ San Mateo","desc":"4933 INDIAN SCHOOL RD NE","coordinates":[-106.5902,35.102],"related_stops":["3711","3713","6548","3561","6714","3557","3563"],"transfer_routes":["3352"],"related_routes":["3330","3331"]
    },"3715":{"name":"Indian School @ Washington","desc":"4687 INDIAN SCHOOL RD NE \u0026 MADISON ST NE","coordinates":[-106.5924,35.102],"related_stops":["3717","3553","3555","3715"],"transfer_routes":["3352"],"related_routes":[]
    },"3717":{"name":"Indian School @ Washington","desc":"4367 INDIAN SCHOOL RD NE","coordinates":[-106.596,35.1021],"related_stops":["3717","3553","3555","3715"],"transfer_routes":["3352"],"related_routes":[]
    },"3719":{"name":"Indian School @ Morningside","desc":"4045 INDIAN SCHOOL RD NE \u0026 MORNINGSIDE DR NE","coordinates":[-106.5999,35.1021],"related_stops":["3551","3719"],"transfer_routes":["3352"],"related_routes":[]
    },"3723":{"name":"Indian School @ Carlisle","desc":"3637 INDIAN SCHOOL RD NE \u0026 CARLISLE BLVD NE","coordinates":[-106.6038,35.1021],"related_stops":["3725","3547","3545","6226","6276","3723","3727","3729","3543"],"transfer_routes":["3352"],"related_routes":["3346"]
    },"3725":{"name":"Indian School @ Carlisle","desc":"3491 INDIAN SCHOOL RD NE \u0026 CARLISLE BLVD NE","coordinates":[-106.6046,35.1021],"related_stops":["3725","3547","3545","6226","6276","3723","3727","3729","3543"],"transfer_routes":["3352"],"related_routes":["3346"]
    },"3727":{"name":"Indian School @ Indian Plaza","desc":"3307 INDIAN SCHOOL RD NE \u0026 INDIAN PLAZA DR NE","coordinates":[-106.6066,35.1021],"related_stops":["3725","3547","3545","6226","6276","3723","3727","3729","3543"],"transfer_routes":["3352"],"related_routes":["3346"]
    },"3729":{"name":"Indian School @ Notre Dame","desc":"3191 INDIAN SCHOOL RD NE \u0026 LAFAYETTE DR NE","coordinates":[-106.6085,35.1021],"related_stops":["3725","3547","3545","6226","6276","3723","3727","3729","3543"],"transfer_routes":["3352"],"related_routes":["3346"]
    },"3731":{"name":"Indian School @ Bryn Mawr","desc":"3109 INDIAN SCHOOL RD NE \u0026 RICHMOND DR NE","coordinates":[-106.6107,35.1021],"related_stops":["3541","3731"],"transfer_routes":["3352"],"related_routes":[]
    },"3733":{"name":"Indian School @ Girard","desc":"2809 INDIAN SCHOOL RD NE \u0026 GIRARD BLVD NE","coordinates":[-106.6132,35.1021],"related_stops":["3539","3733"],"transfer_routes":["3352"],"related_routes":[]
    },"3735":{"name":"Indian School @ Princeton","desc":"2621 INDIAN SCHOOL RD NE \u0026 PRINCETON DR NE","coordinates":[-106.6162,35.1021],"related_stops":["3537","3735"],"transfer_routes":["3352"],"related_routes":[]
    },"3737":{"name":"Indian School @ Stanford","desc":"2415 INDIAN SCHOOL RD NE \u0026 STANFORD DR NE","coordinates":[-106.6198,35.1021],"related_stops":["3535","3739","3737"],"transfer_routes":["3352"],"related_routes":[]
    },"3739":{"name":"Indian School @ Harvard","desc":"2357 INDIAN SCHOOL RD NE \u0026 HARVARD DR NE","coordinates":[-106.6217,35.1021],"related_stops":["3535","3739","3737"],"transfer_routes":["3352"],"related_routes":[]
    },"3741":{"name":"Indian School @ University","desc":"1463 INDIAN SCHOOL RD NE \u0026 UNIVERSITY BLVD NE","coordinates":[-106.6278,35.0988],"related_stops":["3741","3533","6324"],"transfer_routes":["3352","3334"],"related_routes":[]
    },"3743":{"name":"Odelia @ Locust","desc":"1007 INDIAN SCHOOL RD NE \u0026 LOCUST PL NE","coordinates":[-106.6351,35.0987],"related_stops":["3531","3743"],"transfer_routes":["3352","3334"],"related_routes":[]
    },"3745":{"name":"Odelia @ Edith","desc":"519 ODELIA RD NE \u0026 EDITH BLVD NE","coordinates":[-106.6389,35.0992],"related_stops":["3529","3745"],"transfer_routes":["3352","3334"],"related_routes":[]
    },"3747":{"name":"Broadway @ Odelia","desc":"1483 BROADWAY BLVD NE","coordinates":[-106.6419,35.0983],"related_stops":["5816","3747"],"transfer_routes":["3352","3334"],"related_routes":[]
    },"3749":{"name":"Broadway @ Rosemont","desc":"1303 BROADWAY BLVD NE \u0026 ROSEMONT AVE NE","coordinates":[-106.6424,35.0954],"related_stops":["3523","3749"],"transfer_routes":["3352","3334"],"related_routes":[]
    },"3751":{"name":"Broadway @ Mountain","desc":"1021 BROADWAY BLVD NE \u0026 MAGGIES AVE NE","coordinates":[-106.6429,35.0932],"related_stops":["5095","3751","5107","3521","5105","5097","5099"],"transfer_routes":["3352","3334"],"related_routes":["3346"]
    },"3755":{"name":"Lomas @ Broadway","desc":"LOMAS \u0026 BROADWAY","coordinates":[-106.645,35.0906],"related_stops":["5091","3755","4849","3519","4851","7686","5089"],"transfer_routes":["3352","3327"],"related_routes":["3334"]
    },"3901":{"name":"U.T.C. Bay D","desc":"2224 AMERICAS PKWY NE","coordinates":[-106.5715,35.1029],"related_stops":["3581","2847","4605","3901","2751","6048","3259"],"transfer_routes":["3358","3328"],"related_routes":["3352","3343","3333","3367"]
    },"3903":{"name":"Pennsylvania @ Indian School","desc":"1703 PENNSYLVANIA ST NE \u0026 WINROCK LOOP NE","coordinates":[-106.5598,35.1006],"related_stops":["3587","3585","3689","3903","3691","4009"],"transfer_routes":["3328"],"related_routes":["3352"]
    },"3957":{"name":"Constitution @ Indian School","desc":"13117 CONSTITUTION AVE NE","coordinates":[-106.5005,35.0947],"related_stops":["3645","3957","3959","3631"],"transfer_routes":["3328"],"related_routes":["3352"]
    },"3959":{"name":"Constitution @ Indian School","desc":"12943 CONSTITUTION AVE NE","coordinates":[-106.5034,35.0938],"related_stops":["3645","3957","3959","3631"],"transfer_routes":["3328"],"related_routes":["3352"]
    },"4009":{"name":"Pennsylvania @ Mc Knight","desc":"1700 PENNSYLVANIA ST NE \u0026 MCKNIGHT AVE NE","coordinates":[-106.5597,35.1002],"related_stops":["3587","3585","3689","3903","3691","4009"],"transfer_routes":["3328"],"related_routes":["3352"]
    },"4439":{"name":"1st @ Central (in front of A.T.C.)","desc":"110 1ST ST SW","coordinates":[-106.6481,35.0835],"related_stops":["6930","6932","4841","4831","4843","4833","4845","4703","4835","4439","6972","4847","4837","4839","4829","7507","7528"],"transfer_routes":["3353"],"related_routes":["3346","3352","3354","3358","3326","3327","3328","3329","3334","3344","3345","3347","3349","3350","3360","3361","3363","3338","3340","3367","3366"]
    },"4605":{"name":"UPTOWN TRANSIT CENTER","desc":"2236","coordinates":[-106.571,35.103],"related_stops":["3581","2847","4605","3901","2751","6048","3259"],"transfer_routes":["3367"],"related_routes":["3352","3358","3328","3343","3333"]
    },"4607":{"name":"Indian School @ Louisiana","desc":"6820 INDIAN SCHOOL RD NE \u0026 Q ST NE","coordinates":[-106.5678,35.1018],"related_stops":["3693","3583","4607","7158"],"transfer_routes":["3367"],"related_routes":["3352","3328"]
    },"4703":{"name":"Central @ 1st (across from A.T.C.)","desc":"113 CENTRAL AVE W","coordinates":[-106.6487,35.0843],"related_stops":["6930","6932","4841","4831","4843","4833","4845","4703","4835","4439","6972","4847","4837","4839","4829","7507","7528"],"transfer_routes":["3353"],"related_routes":["3346","3352","3354","3358","3326","3327","3328","3329","3334","3344","3345","3347","3349","3350","3360","3361","3363","3338","3340","3367","3366"]
    },"4829":{"name":"A.T.C.  (Bay K)","desc":"GOLD AVE SW","coordinates":[-106.6478,35.0827],"related_stops":["6930","6932","4841","4831","4843","4833","4845","4703","4835","4439","6972","4847","4837","4839","4829","7507","7528"],"transfer_routes":["3338"],"related_routes":["3346","3352","3354","3358","3326","3327","3328","3329","3334","3344","3345","3347","3349","3350","3353","3360","3361","3363","3340","3367","3366"]
    },"4831":{"name":"A.T.C.  (Bay L)","desc":"1ST ST SW \u0026 GOLD AVE SW","coordinates":[-106.6477,35.0829],"related_stops":["6930","6932","4841","4831","4843","4833","4845","4703","4835","4439","6972","4847","4837","4839","4829","7507","7528"],"transfer_routes":["3350"],"related_routes":["3346","3352","3354","3358","3326","3327","3328","3329","3334","3344","3345","3347","3349","3353","3360","3361","3363","3338","3340","3367","3366"]
    },"4833":{"name":"A.T.C.  (Bay M)","desc":"1ST ST SW \u0026 GOLD AVE SW","coordinates":[-106.6477,35.0831],"related_stops":["6930","6932","4841","4831","4843","4833","4845","4703","4835","4439","6972","4847","4837","4839","4829","7507","7528"],"transfer_routes":["3352","3328","3334"],"related_routes":["3346","3354","3358","3326","3327","3329","3344","3345","3347","3349","3350","3353","3360","3361","3363","3338","3340","3367","3366"]
    },"4835":{"name":"A.T.C.  (Bay C)","desc":"CENTRAL AVE W \u0026 COPPER AVE NW","coordinates":[-106.6476,35.0837],"related_stops":["6930","6932","4841","4831","4843","4833","4845","4703","4835","4439","6972","4847","4837","4839","4829","7507","7528"],"transfer_routes":["3326"],"related_routes":["3346","3352","3354","3358","3327","3328","3329","3334","3344","3345","3347","3349","3350","3353","3360","3361","3363","3338","3340","3367","3366"]
    },"4837":{"name":"A.T.C.  (Bay D)","desc":"","coordinates":[-106.6475,35.0836],"related_stops":["6930","6932","4841","4831","4843","4833","4845","4703","4835","4439","6972","4847","4837","4839","4829","7507","7528"],"transfer_routes":["3327"],"related_routes":["3346","3352","3354","3358","3326","3328","3329","3334","3344","3345","3347","3349","3350","3353","3360","3361","3363","3338","3340","3367","3366"]
    },"4839":{"name":"A.T.C.  (Bay E)","desc":"","coordinates":[-106.6475,35.0834],"related_stops":["6930","6932","4841","4831","4843","4833","4845","4703","4835","4439","6972","4847","4837","4839","4829","7507","7528"],"transfer_routes":["3361","3340"],"related_routes":["3346","3352","3354","3358","3326","3327","3328","3329","3334","3344","3345","3347","3349","3350","3353","3360","3363","3338","3367","3366"]
    },"4841":{"name":"A.T.C.  (Bay F)","desc":"","coordinates":[-106.6475,35.0832],"related_stops":["6930","6932","4841","4831","4843","4833","4845","4703","4835","4439","6972","4847","4837","4839","4829","7507","7528"],"transfer_routes":["3349"],"related_routes":["3346","3352","3354","3358","3326","3327","3328","3329","3334","3344","3345","3347","3350","3353","3360","3361","3363","3338","3340","3367","3366"]
    },"4843":{"name":"A.T.C.  (Bay G)","desc":"","coordinates":[-106.6476,35.083],"related_stops":["6930","6932","4841","4831","4843","4833","4845","4703","4835","4439","6972","4847","4837","4839","4829","7507","7528"],"transfer_routes":["3346"],"related_routes":["3352","3354","3358","3326","3327","3328","3329","3334","3344","3345","3347","3349","3350","3353","3360","3361","3363","3338","3340","3367","3366"]
    },"4845":{"name":"A.T.C.  (Bay H)","desc":"","coordinates":[-106.6476,35.0829],"related_stops":["6930","6932","4841","4831","4843","4833","4845","4703","4835","4439","6972","4847","4837","4839","4829","7507","7528"],"transfer_routes":["3358"],"related_routes":["3346","3352","3354","3326","3327","3328","3329","3334","3344","3345","3347","3349","3350","3353","3360","3361","3363","3338","3340","3367","3366"]
    },"4847":{"name":"A.T.C.  (Bay J)","desc":"","coordinates":[-106.6476,35.0827],"related_stops":["6930","6932","4841","4831","4843","4833","4845","4703","4835","4439","6972","4847","4837","4839","4829","7507","7528"],"transfer_routes":["3363"],"related_routes":["3346","3352","3354","3358","3326","3327","3328","3329","3334","3344","3345","3347","3349","3350","3353","3360","3361","3338","3340","3367","3366"]
    },"4849":{"name":"Lomas @ Broadway","desc":"LOMAS \u0026 BROADWAY","coordinates":[-106.6439,35.0902],"related_stops":["5091","3755","4849","3519","4851","7686","5089"],"transfer_routes":["3352","3327"],"related_routes":["3334"]
    },"4851":{"name":"Lomas @ Broadway","desc":"304 LOMAS BLVD NE","coordinates":[-106.6428,35.0901],"related_stops":["5091","3755","4849","3519","4851","7686","5089"],"transfer_routes":["3327"],"related_routes":["3352","3334"]
    },"5089":{"name":"Lomas @ Broadway","desc":"309 LOMAS BLVD NE \u0026 BROADWAY BLVD NE","coordinates":[-106.643,35.0904],"related_stops":["5091","3755","4849","3519","4851","7686","5089"],"transfer_routes":["3327"],"related_routes":["3352","3334"]
    },"5091":{"name":"Lomas @ Broadway","desc":"279 LOMAS BLVD NE \u0026 BROADWAY BLVD NE","coordinates":[-106.6436,35.0904],"related_stops":["5091","3755","4849","3519","4851","7686","5089"],"transfer_routes":["3352","3327"],"related_routes":["3334"]
    },"5095":{"name":"Mountain @ Broadway","desc":"112 MOUNTAIN RD NE","coordinates":[-106.6443,35.0944],"related_stops":["5095","3751","5107","3521","5105","5097","5099"],"transfer_routes":["3346"],"related_routes":["3352","3334"]
    },"5097":{"name":"Mountain @ Broadway","desc":"314 MOUNTAIN RD NE","coordinates":[-106.642,35.0943],"related_stops":["5095","3751","5107","3521","5105","5097","5099"],"transfer_routes":["3346"],"related_routes":["3352","3334"]
    },"5099":{"name":"Mountain @ Edith","desc":"504 MOUNTAIN RD NE \u0026 EDITH BLVD NE","coordinates":[-106.6398,35.0942],"related_stops":["5095","3751","5107","3521","5105","5097","5099"],"transfer_routes":["3346"],"related_routes":["3352","3334"]
    },"5105":{"name":"Mountain @ Edith","desc":"407 MOUNTAIN RD NE","coordinates":[-106.641,35.0944],"related_stops":["5095","3751","5107","3521","5105","5097","5099"],"transfer_routes":["3346"],"related_routes":["3352","3334"]
    },"5107":{"name":"Mountain @ Broadway","desc":"113 MOUNTAIN RD NE","coordinates":[-106.6442,35.0945],"related_stops":["5095","3751","5107","3521","5105","5097","5099"],"transfer_routes":["3346"],"related_routes":["3352","3334"]
    },"5816":{"name":"Broadway @ Odelia","desc":"1500 BROADWAY BLVD NE \u0026 ODELIA RD NE","coordinates":[-106.6417,35.0985],"related_stops":["5816","3747"],"transfer_routes":["3352","3334"],"related_routes":[]
    },"5978":{"name":"Indian School @ Morris","desc":"10907 INDIAN SCHOOL RD NE \u0026 MORRIS ST NE","coordinates":[-106.5246,35.1017],"related_stops":["5980","5978"],"transfer_routes":["3352"],"related_routes":[]
    },"5980":{"name":"Indian School @ Morris","desc":"10916 INDIAN SCHOOL RD NE \u0026 MORRIS ST NE","coordinates":[-106.5245,35.1015],"related_stops":["5980","5978"],"transfer_routes":["3352"],"related_routes":[]
    },"6044":{"name":"San Pedro @ Princess Jeanne","desc":"1928 SAN PEDRO DR NE \u0026 PRINCESS JEANNE AVE NE","coordinates":[-106.5775,35.0984],"related_stops":["3703","3571","6046","3701","6168","6044"],"transfer_routes":["3343"],"related_routes":["3352"]
    },"6046":{"name":"San Pedro @ Zimmerman","desc":"2008 SAN PEDRO DR NE \u0026 ZIMMERMAN AVE NE","coordinates":[-106.5775,35.0995],"related_stops":["3703","3571","6046","3701","6168","6044"],"transfer_routes":["3343"],"related_routes":["3352"]
    },"6048":{"name":"U.T.C. Bay C","desc":"","coordinates":[-106.5714,35.1029],"related_stops":["3581","2847","4605","3901","2751","6048","3259"],"transfer_routes":["3343"],"related_routes":["3352","3358","3328","3333","3367"]
    },"6168":{"name":"San Pedro @ Hannett","desc":"2005 SAN PEDRO DR NE \u0026 HANNETT AVE NE","coordinates":[-106.5776,35.0991],"related_stops":["3703","3571","6046","3701","6168","6044"],"transfer_routes":["3343"],"related_routes":["3352"]
    },"6226":{"name":"Carlisle @ Indian School","desc":"2112 CARLISLE BLVD NE \u0026 INDIAN SCHOOL RD NE","coordinates":[-106.6041,35.1023],"related_stops":["3725","3547","3545","6226","6276","3723","3727","3729","3543"],"transfer_routes":["3346"],"related_routes":["3352"]
    },"6276":{"name":"Carlisle @ Indian School","desc":"2015 CARLISLE BLVD NE \u0026 INDIAN SCHOOL RD NE","coordinates":[-106.6043,35.1016],"related_stops":["3725","3547","3545","6226","6276","3723","3727","3729","3543"],"transfer_routes":["3346"],"related_routes":["3352"]
    },"6324":{"name":"University @ Indian School","desc":"1421 UNIVERSITY BLVD NE","coordinates":[-106.6273,35.0985],"related_stops":["3741","3533","6324"],"transfer_routes":["3334"],"related_routes":["3352"]
    },"6548":{"name":"San Mateo @ Indian School","desc":"2142 SAN MATEO BLVD NE","coordinates":[-106.5863,35.1014],"related_stops":["3711","3713","6548","3561","6714","3557","3563"],"transfer_routes":["3330","3331"],"related_routes":["3352"]
    },"6714":{"name":"San Mateo @ Indian School","desc":"2131 SAN MATEO BLVD NE","coordinates":[-106.5865,35.1011],"related_stops":["3711","3713","6548","3561","6714","3557","3563"],"transfer_routes":["3330","3331"],"related_routes":["3352"]
    },"6930":{"name":"A.T.C.  (Bay B)","desc":"","coordinates":[-106.6476,35.0835],"related_stops":["6930","6932","4841","4831","4843","4833","4845","4703","4835","4439","6972","4847","4837","4839","4829","7507","7528"],"transfer_routes":["3344","3345"],"related_routes":["3346","3352","3354","3358","3326","3327","3328","3329","3334","3347","3349","3350","3353","3360","3361","3363","3338","3340","3367","3366"]
    },"6932":{"name":"A.T.C.  (Bay A)","desc":"","coordinates":[-106.6477,35.0833],"related_stops":["6930","6932","4841","4831","4843","4833","4845","4703","4835","4439","6972","4847","4837","4839","4829","7507","7528"],"transfer_routes":["3347"],"related_routes":["3346","3352","3354","3358","3326","3327","3328","3329","3334","3344","3345","3349","3350","3353","3360","3361","3363","3338","3340","3367","3366"]
    },"6966":{"name":"2nd @ Marquette","desc":"406 2ND ST NW \u0026 MARQUETTE AVE NW","coordinates":[-106.6485,35.0877],"related_stops":["1575","6966"],"transfer_routes":["3346","3352","3326","3327","3329","3360","3361"],"related_routes":["3354","3328","3334","3347","3359"]
    },"6968":{"name":"2nd @ Roma","desc":"2ND ST NW","coordinates":[-106.6481,35.0901],"related_stops":["3517","1573","6968"],"transfer_routes":["3346","3352","3354","3326","3327","3329","3360","3361"],"related_routes":["3359"]
    },"6972":{"name":"A.T.C.  (Bay N)","desc":"","coordinates":[-106.648,35.0827],"related_stops":["6930","6932","4841","4831","4843","4833","4845","4703","4835","4439","6972","4847","4837","4839","4829","7507","7528"],"transfer_routes":["3354","3329","3334","3360"],"related_routes":["3346","3352","3358","3326","3327","3328","3344","3345","3347","3349","3350","3353","3361","3363","3338","3340","3367","3366"]
    },"7022":{"name":"Tijeras @ 2nd","desc":"104 TIJERAS AVE NW","coordinates":[-106.6483,35.0862],"related_stops":["1729","7022"],"transfer_routes":["3328","3334","3347","3359"],"related_routes":["3346","3352","3354","3326","3327","3329","3360","3361"]
    },"7158":{"name":"Indian School @ Uptown Loop","desc":"","coordinates":[-106.5672,35.102],"related_stops":["3693","3583","4607","7158"],"transfer_routes":["3328","3367"],"related_routes":["3352"]
    },"7232":{"name":"Juan Tabo @ Indian School","desc":"1812 JUAN TABO BLVD NE","coordinates":[-106.5153,35.1019],"related_stops":["1965","7232","2065","3615","3613","3659"],"transfer_routes":["3325"],"related_routes":["3352"]
    },"7507":{"name":"ART - Alvarado Transportation Center","desc":"110 1ST ST SW","coordinates":[-106.6481,35.0835],"related_stops":["6930","6932","4841","4831","4843","4833","4845","4703","4835","4439","6972","4847","4837","4839","4829","7507","7528"],"transfer_routes":["3367","3366"],"related_routes":["3346","3352","3354","3358","3326","3327","3328","3329","3334","3344","3345","3347","3349","3350","3353","3360","3361","3363","3338","3340"]
    },"7528":{"name":"ART - Downtown Station","desc":"COPPER AVE NW \u0026 1ST ST NW","coordinates":[-106.648,35.0848],"related_stops":["6930","6932","4841","4831","4843","4833","4845","4703","4835","4439","6972","4847","4837","4839","4829","7507","7528"],"transfer_routes":["3367","3366"],"related_routes":["3346","3352","3354","3358","3326","3327","3328","3329","3334","3344","3345","3347","3349","3350","3353","3360","3361","3363","3338","3340"]
    },"7686":{"name":"Broadway @ Lomas","desc":"703 BROADWAY BLVD NE","coordinates":[-106.6435,35.0898],"related_stops":["5091","3755","4849","3519","4851","7686","5089"],"transfer_routes":["3334"],"related_routes":["3352","3327"]
    },"7696":{"name":"(Hilton Garden Inn Uptown) America\u0027s Parkway @ Louisiana","desc":"6612 AMERICAS PKWY NE","coordinates":[-106.5702,35.0998],"related_stops":["7696","2845"],"transfer_routes":["3352","3328","3333"],"related_routes":[]
    }
  },
  "trip_data": {
    "shapes": {
      "90105": {
        "bearing": 82.07,"centroid":[-106.5768,35.0978],
        "bounds": [[-106.6494,35.0826],[0.0,35.1037]
        ],"coordinates":[[-106.64768600005046,35.083108],[-106.64757400005045,35.083698],[-106.6474080000504,35.083795],[-106.64732000005039,35.083617],[-106.64761100005045,35.082563],[-106.64835100005062,35.082622],[-106.6482220000506,35.083078],[-106.64942800005086,35.083249],[-106.64796400005055,35.090885],[-106.64333200004953,35.090289],[-106.6417310000492,35.098984],[-106.63969100004876,35.099128],[-106.63733800004826,35.098999],[-106.63227300004718,35.097851],[-106.6300020000467,35.09795],[-106.62875600004644,35.098256],[-106.62736600004615,35.098992],[-106.6241410000455,35.101556],[-106.62228100004512,35.10196],[-106.58091100003733,35.101894],[-106.578978000037,35.101037],[-106.57865200003694,35.100685],[-106.57854400003691,35.100101],[-106.57777600003678,35.100073],[-106.57755700003675,35.100191],[-106.57757800003677,35.103673],[-106.57692900003666,35.103547],[-106.57636400003655,35.103248],[-106.57538700003639,35.102237],[-106.57459700003623,35.101903],[-106.57383600003611,35.101865],[-106.57164900003573,35.101841],[-106.57072900003558,35.101844],[-106.5707640000356,35.102946],[-106.57167200003576,35.10294],[-106.57164900003573,35.101841],[-106.57203900003582,35.100948],[-106.5719940000358,35.100374],[-106.57109800003565,35.099991],[-106.5696180000354,35.099762],[-106.56732600003501,35.099782],[-106.56612400003483,35.101905],[-106.55080700003239,35.102007],[-106.54290500003118,35.101922],[-106.51540000002726,35.101483],[-106.50641300002606,35.101096],[-106.50551400002595,35.100982],[-106.50455800002582,35.100331],[-106.50154900002542,35.096124],[-106.50081500002534,35.095405],[-106.49946700002515,35.094859],[-106.49771100002494,35.094765],[-106.49747400002491,35.098502],[-106.49748300002493,35.102664],[-106.49592800002473,35.102893],[-106.49355100002444,35.102936],[-106.49262800002433,35.102821],[-106.49309500002437,35.100724]],
        "distances": [0.0,0.0668,0.0886,0.112,0.2348,0.303,0.3552,0.4659,1.3307,1.7549,2.7384,2.9241,3.1378,3.6132,3.8191,3.9374,4.0869,4.4972,4.6727,8.4141,8.6149,8.6637,8.7295,8.7995,8.8234,9.2138,9.275,9.3365,9.4799,9.5615,9.6306,9.8287,9.9117,10.0347,10.1167,9.8287,10.3458,10.4105,10.5042,10.641,10.8492,11.1109,12.4962,13.2103,15.6989,16.513,16.595,16.7096,17.2539,17.3577,17.495,17.6543,18.0738,18.5391,18.6835,18.8976,18.9826,19.2218]
      },
      "b34c1": {
        "bearing": 261.17,"centroid":[-106.573,35.0988],
        "bounds": [[-106.6494,35.083],[0.0,35.1037]
        ],"coordinates":[[-106.49262800002433,35.102821],[-106.49309500002437,35.100724],[-106.49324600002439,35.094846],[-106.4941430000245,35.094681],[-106.49946700002515,35.094859],[-106.50021900002525,35.095089],[-106.50081500002534,35.095405],[-106.50154900002542,35.096124],[-106.50484000002587,35.100613],[-106.50551400002595,35.100982],[-106.50641300002606,35.101096],[-106.51540000002726,35.101483],[-106.54290500003118,35.101922],[-106.55080700003239,35.102007],[-106.56612400003483,35.101905],[-106.56732600003501,35.099782],[-106.5696180000354,35.099762],[-106.57109800003565,35.099991],[-106.5719940000358,35.100374],[-106.57203900003582,35.100948],[-106.57164900003573,35.101841],[-106.57072900003558,35.101844],[-106.5707640000356,35.102946],[-106.57167200003576,35.10294],[-106.57164900003573,35.101841],[-106.57459700003623,35.101903],[-106.57538700003639,35.102237],[-106.57636400003655,35.103248],[-106.57692900003666,35.103547],[-106.57757800003677,35.103673],[-106.57755700003675,35.100191],[-106.57777600003678,35.100073],[-106.57854400003691,35.100101],[-106.57865200003694,35.100685],[-106.578978000037,35.101037],[-106.58091100003733,35.101894],[-106.62228100004512,35.10196],[-106.6241410000455,35.101556],[-106.62736600004615,35.098992],[-106.62875600004644,35.098256],[-106.6300020000467,35.09795],[-106.63227300004718,35.097851],[-106.63733800004826,35.098999],[-106.63969100004876,35.099128],[-106.6417310000492,35.098984],[-106.64333200004953,35.090289],[-106.64796400005055,35.090885],[-106.64942800005086,35.083249],[-106.6478300000505,35.083019],[-106.64768600005046,35.083108]],
        "distances": [0.0,0.2392,0.8973,0.9805,1.4629,1.5359,1.6003,1.7041,2.2889,2.3629,2.445,3.2591,5.7476,6.4617,7.847,8.1088,8.317,8.4538,8.5474,8.6122,8.7182,8.8012,8.9243,9.0063,8.7182,9.3965,9.4781,9.6214,9.683,9.7442,10.1346,10.1584,10.2285,10.2943,10.3431,10.5439,14.2853,14.4608,14.8711,15.0205,15.1388,15.3448,15.8202,16.0338,16.2196,17.203,17.6272,18.4921,18.6394,18.6567]
      }
    },
    "stop_lists": {
      "6763a": ["4833","6966","6968","3517","4849","3519","3521","3523","5816","3529","3531","3533","3535","3537","3539","3541","3543","3545","3547","3549","3551","3553","3555","3557","3561","3563","3565","3567","3569","3571","3573","3575","3577","3579","3581","7696","3583","3585","3587","3589","3591","3593","3595","3597","3599","3601","3603","3605","3607","5980","3611","3613","3615","3617","3619","3621","3623","3625","3627","3631","3633","3635","3637"],
      "28d2d": ["3637","3639","3641","3643","3645","3647","3649","3651","3653","3655","3659","3661","5978","3665","3607","3667","3671","3673","3675","3677","3679","3681","3683","3685","3687","3689","3691","3693","2845","3581","3695","3697","3699","3701","3703","3705","3707","3711","3713","3715","3717","3719","3723","3725","3727","3729","3731","3733","3735","3737","3739","3741","3743","3745","3747","3749","3751","5091","3755","1573","1575","1729","4833"]
    },
    "stop_times": {
      "4a0a9": [0,79,106,135,174,194,227,272,306,327,360,415,480,527,551,589,633,660,704,737,759,789,840,859,886,913,940,973,1045,1080,1161,1188,1265,1336,1354,1419,1446,1500,1542,1571,1619,1672,1725,1740,1760,1778,1799,1824,1853,1889,1908,1982,2059,2097,2134,2169,2197,2235,2248,2289,2318,2345,2400],
      "9cd42": [0,146,186,210,255,269,321,351,401,448,501,622,717,778,827,856,892,923,960,983,1015,1082,1108,1138,1200,1218,1244,1278,1313,1335,1435,1450,1481,1520,1620,1647,1718,1770,1796,1820,1850,1860,1900,1967,1984,2045,2089,2106,2158,2216,2284,2340,2349,2372,2394,2418,2442,2484,2505,2551,2683,2711,2760],
      "61868": [0,155,198,224,272,287,342,374,427,477,534,662,763,828,881,912,950,983,1020,1043,1075,1142,1168,1198,1260,1278,1304,1338,1373,1395,1495,1510,1541,1580,1680,1707,1778,1830,1856,1880,1910,1920,1960,2027,2044,2105,2149,2166,2218,2276,2344,2400,2409,2432,2454,2478,2502,2544,2565,2611,2743,2771,2820]
    },
    "stop_distances": {
      "9b6e8": [0.0,0.9684,1.2385,1.4037,1.7083,1.8074,2.156,2.3583,2.6909,3.0072,3.3648,4.1692,4.8037,5.2098,5.5409,5.7362,5.9763,6.1875,6.3635,6.5135,6.7195,7.1456,7.3126,7.5037,7.8798,7.9848,8.1371,8.3361,8.5418,8.6747,9.2607,9.3536,9.5396,9.7707,10.3292,10.5843,11.2419,11.723,11.964,12.1911,12.4692,12.5392,12.8023,13.2373,13.3494,13.7495,14.0376,14.1526,14.4949,14.876,15.3233,15.6559,15.7369,15.9372,16.1295,16.3338,16.5423,16.9046,17.0883,17.4816,18.6058,18.8447,19.2218],
      "62951": [0.0,0.7323,0.9835,1.2536,1.613,1.8036,2.1076,2.5211,2.8375,3.0348,3.3041,3.6668,4.0899,4.3981,4.5561,4.8073,5.0984,5.2785,5.5656,5.7816,5.9277,6.1267,6.4267,6.6088,6.8709,7.1299,7.3889,7.706,8.402,8.7182,9.1833,9.3414,9.7852,10.1915,10.2943,10.6689,10.8229,11.1102,11.3903,11.5873,11.9094,12.2644,12.6165,12.6905,12.8715,13.0427,13.2358,13.4671,13.7361,14.0622,14.2363,14.9124,15.6118,15.9618,16.2973,16.621,16.8789,17.2295,17.3538,17.7275,17.9945,18.242,18.6567]
    },
    "dwell_times": {
      "5d52c": [0,0,0,0,0,0,0,0,0,0,0,0,0,0,0,0,0,0,0,0,0,0,0,0,0,0,0,0,0,0,0,0,0,0,0,0,0,0,0,0,0,0,0,0,0,0,0,0,0,0,0,0,0,0,0,0,0,0,0,0,0,0,0]
    },
    "trips": {
      "1": [
        {"id":"431614","direction":0,"start_time":22080,"stops_key":"28d2d","stop_distances":"62951","stop_times":"4a0a9","stop_dwells":"5d52c","shape_key":"b34c1"},
        {"id":"431613","direction":0,"start_time":25680,"stops_key":"28d2d","stop_distances":"62951","stop_times":"4a0a9","stop_dwells":"5d52c","shape_key":"b34c1"},
        {"id":"431616","direction":1,"start_time":60840,"stops_key":"6763a","stop_distances":"9b6e8","stop_times":"61868","stop_dwells":"5d52c","shape_key":"90105"},
        {"id":"431615","direction":1,"start_time":62760,"stops_key":"6763a","stop_distances":"9b6e8","stop_times":"9cd42","stop_dwells":"5d52c","shape_key":"90105"}
      ]
    }
  }
}