{
  "id": "3117",
  "short_name": "16",
  "long_name": "University/Gibson/Broadway",
  "color": "C01D8C",
  "text_color": "FFFFFF",
  "schedules": {
    "1": {
      "start_date": "20180818",
      "end_date": "20181221",
      "days_mask_mon_sun": 124,"added_days":[],"removed_days":["20180903","20181122","20181123"
      ]
    },
    "2": {
      "start_date": "20180818",
      "end_date": "20181221",
      "days_mask_mon_sun": 2,"added_days":["20181123"
      ],"removed_days":[]
    },
    "3": {
      "start_date": "20180818",
      "end_date": "20181221",
      "days_mask_mon_sun": 1,"added_days":[],"removed_days":[]
    }
  },
  "related_route_data": {"3129":{"short_name":"5","long_name":"Montgomery/Carlisle","color":"FF4E21","text_color":"000000"
    },"3135":{"short_name":"6","long_name":"Indian School Commuter","color":"E171E1","text_color":"000000"
    },"3137":{"short_name":"7","long_name":"Candelaria Commuter","color":"FF7F54","text_color":"000000"
    },"3141":{"short_name":"8","long_name":"Menaul","color":"7B097B","text_color":"FFFFFF"
    },"3109":{"short_name":"10","long_name":"North Fourth Street","color":"C30000","text_color":"FFFFFF"
    },"3110":{"short_name":"11","long_name":"Lomas","color":"800080","text_color":"FFFFFF"
    },"3111":{"short_name":"12","long_name":"Constitution Commuter","color":"B7FF00","text_color":"000000"
    },"3112":{"short_name":"13","long_name":"Comanche Commuter","color":"006267","text_color":"FFFFFF"
    },"3117":{"short_name":"16","long_name":"University/Gibson/Broadway","color":"C01D8C","text_color":"FFFFFF"
    },"3126":{"short_name":"34","long_name":"San Pedro Commuter","color":"FF9E00","text_color":"000000"
    },"3127":{"short_name":"36","long_name":"12th Street/Rio Grande","color":"800000","text_color":"FFFFFF"
    },"3128":{"short_name":"37","long_name":"Rio Grande/12th Street","color":"800000","text_color":"FFFFFF"
    },"3130":{"short_name":"50","long_name":"Airport/Downtown","color":"71220F","text_color":"FFFFFF"
    },"3132":{"short_name":"53","long_name":"Isleta","color":"2390CF","text_color":"000000"
    },"3133":{"short_name":"54","long_name":"Bridge/Westgate","color":"006097","text_color":"FFFFFF"
    },"3136":{"short_name":"66","long_name":"Central Avenue","color":"00DEC8","text_color":"000000"
    },"3142":{"short_name":"92","long_name":"Taylor Ranch Express","color":"D43815","text_color":"FFFFFF"
    },"3143":{"short_name":"93","long_name":"Academy Commuter","color":"9494FF","text_color":"000000"
    },"3144":{"short_name":"94","long_name":"Unser Commuter","color":"3988FF","text_color":"000000"
    },"3145":{"short_name":"96","long_name":"Crosstown Commuter","color":"F3F400","text_color":"000000"
    },"3146":{"short_name":"97","long_name":"Zuni Express","color":"6600FF","text_color":"FFFFFF"
    },"3113":{"short_name":"140","long_name":"San Mateo / CNM Work Force","color":"420080","text_color":"FFFFFF"
    },"3114":{"short_name":"141","long_name":"San Mateo","color":"7E0080","text_color":"FFFFFF"
    },"3116":{"short_name":"157","long_name":"Cottonwood/Montano/UTC","color":"008047","text_color":"FFFFFF"
    },"3121":{"short_name":"217","long_name":"Downtown-KAFB Ltd.","color":"FDDC00","text_color":"000000"
    },"3122":{"short_name":"222","long_name":"Rio Bravo/ Rail Runner/ KAFB","color":"804A80","text_color":"FFFFFF"
    },"3123":{"short_name":"250","long_name":"Airport/Downtown Express","color":"F34C00","text_color":"000000"
    },"3138":{"short_name":"766","long_name":"Red Line Rapid Ride","color":"EC0000","text_color":"FFFFFF"
    },"3139":{"short_name":"777","long_name":"Green Line Rapid Ride","color":"00FF00","text_color":"000000"
    }
  },
  "stops": {"1575":{"name":"2nd @ Marquette","desc":"385 2ND ST NW \u0026 MARQUETTE AVE NW","coordinates":[-106.6487,35.0877],"related_stops":["1575","6966"],"transfer_routes":["3129","3135","3137","3109","3110","3111","3112","3117","3130","3142","3143","3144"],"related_routes":[]
    },"1577":{"name":"Martin Luther King @ Broadway","desc":"302 MARTIN LUTHER KING AVE NE \u0026 GRAND AVE NE","coordinates":[-106.6438,35.0861],"related_stops":["1577","1597","7678","6322","3757"],"transfer_routes":["3111","3130","3142"],"related_routes":["3117"]
    },"1583":{"name":"University @ Martin Luther King","desc":"412 UNIVERSITY BLVD NE","coordinates":[-106.6258,35.0845],"related_stops":["1583","1593","3773","7408","7410","6332"],"transfer_routes":["3111","3117","3142"],"related_routes":["3130"]
    },"1585":{"name":"University @ Las Lomas","desc":"LAS LOMAS RD NE \u0026 UNIVERSITY BLVD NE","coordinates":[-106.6254,35.0867],"related_stops":["4067","1585"],"transfer_routes":["3111","3117","3142"],"related_routes":[]
    },"1587":{"name":"Lomas @ University","desc":"1808 LOMAS BLVD NE \u0026 BUENA VISTA DR NE","coordinates":[-106.6238,35.0895],"related_stops":["4063","4065","7238","6330","6328","5079","1587","5662","7283"],"transfer_routes":["3129","3110","3111","3142"],"related_routes":["3117"]
    },"1593":{"name":"Martin Luther King @ University","desc":"1625 MARTIN LUTHER KING AVE NE","coordinates":[-106.6269,35.0842],"related_stops":["1583","1593","3773","7408","7410","6332"],"transfer_routes":["3111","3130","3142"],"related_routes":["3117"]
    },"1597":{"name":"Martin Luther King @ Broadway","desc":"303 MARTIN LUTHER KING AVE NE \u0026 GRAND AVE NE","coordinates":[-106.6438,35.0864],"related_stops":["1577","1597","7678","6322","3757"],"transfer_routes":["3111","3130","3142"],"related_routes":["3117"]
    },"1729":{"name":"2nd @ Copper","desc":"209 2ND ST NW \u0026 COPPER AVE NW","coordinates":[-106.6491,35.0855],"related_stops":["1729","7022"],"transfer_routes":["3129","3135","3137","3109","3110","3111","3112","3117","3130","3143","3144"],"related_routes":["3142"]
    },"2789":{"name":"Louisiana @ Eastern","desc":"1025 LOUISIANA BLVD SE","coordinates":[-106.5689,35.0608],"related_stops":["6386","2807","2789","7344","2915","2959","5706","6384"],"transfer_routes":["3116"],"related_routes":["3117","3145"]
    },"2799":{"name":"San Pedro @ Gibson","desc":"1304 SAN PEDRO DR SE \u0026 GIBSON BLVD SE","coordinates":[-106.5775,35.058],"related_stops":["2801","6002","2917","2957","6210","6212","2799"],"transfer_routes":["3126"],"related_routes":["3117","3145","3116","3122"]
    },"2801":{"name":"Gibson @ San Pedro","desc":"5936 GIBSON BLVD SE \u0026 CALIFORNIA ST SE","coordinates":[-106.5758,35.0582],"related_stops":["2801","6002","2917","2957","6210","6212","2799"],"transfer_routes":["3117"],"related_routes":["3126","3145","3116","3122"]
    },"2803":{"name":"Gibson @ Dakota","desc":"6120 GIBSON BLVD SE \u0026 DAKOTA ST SE","coordinates":[-106.5738,35.0581],"related_stops":["2803","6388"],"transfer_routes":["3117","3145"],"related_routes":["3116"]
    },"2807":{"name":"Louisiana @ Eastern","desc":"1030 LOUISIANA BLVD SE","coordinates":[-106.5686,35.0605],"related_stops":["6386","2807","2789","7344","2915","2959","5706","6384"],"transfer_routes":["3116"],"related_routes":["3117","3145"]
    },"2915":{"name":"Gibson @ Louisiana","desc":"6511 GIBSON BLVD SE","coordinates":[-106.5693,35.0583],"related_stops":["6386","2807","2789","7344","2915","2959","5706","6384"],"transfer_routes":["3117","3145","3116"],"related_routes":[]
    },"2917":{"name":"Gibson @ San Pedro","desc":"5801 GIBSON BLVD SE \u0026 SAN PEDRO DR SE","coordinates":[-106.5771,35.0584],"related_stops":["2801","6002","2917","2957","6210","6212","2799"],"transfer_routes":["3117","3145","3122"],"related_routes":["3126","3116"]
    },"2919":{"name":"Gibson @ San Mateo","desc":"5009 GIBSON BLVD SE \u0026 ORTIZ DR SE","coordinates":[-106.5856,35.0585],"related_stops":["2919","2949","2951","6516","6494","7228"],"transfer_routes":["3117","3145","3121","3122"],"related_routes":["3113","3114"]
    },"2921":{"name":"Gibson @ Truman","desc":"4841 GIBSON BLVD SE \u0026 TRUMAN ST SE","coordinates":[-106.5891,35.0584],"related_stops":["2921","2947","6398","6382"],"transfer_routes":["3117","3145","3122"],"related_routes":[]
    },"2923":{"name":"Gibson @ Washington","desc":"GIBSON BLVD SE \u0026 WASHINGTON ST SE","coordinates":[-106.5956,35.0584],"related_stops":["2945","2923"],"transfer_routes":["3117","3145"],"related_routes":[]
    },"2927":{"name":"Gibson @ Carlisle","desc":"3543 GIBSON BLVD SE \u0026 CARLISLE BLVD SE","coordinates":[-106.6047,35.0584],"related_stops":["2927","2941","7438","6400"],"transfer_routes":["3145","3121","3122"],"related_routes":["3117"]
    },"2933":{"name":"Gibson @ University","desc":"GIBSON \u0026 UNIVERSITY","coordinates":[-106.6329,35.0589],"related_stops":["2933","2935","6428","7422","6352"],"transfer_routes":["3145"],"related_routes":["3117","3121"]
    },"2935":{"name":"Gibson @ University","desc":"1606 GIBSON BLVD SE","coordinates":[-106.63,35.0583],"related_stops":["2933","2935","6428","7422","6352"],"transfer_routes":["3117","3145"],"related_routes":["3121"]
    },"2937":{"name":"Gibson @ Yale","desc":"GIBSON \u0026 YALE","coordinates":[-106.6216,35.0583],"related_stops":["3797","2937","3817","5670","3795","3815"],"transfer_routes":["3145","3121"],"related_routes":["3117","3130"]
    },"2941":{"name":"Gibson @ Carlisle","desc":"3606 GIBSON BLVD SE","coordinates":[-106.6036,35.0581],"related_stops":["2927","2941","7438","6400"],"transfer_routes":["3117","3145","3121","3122"],"related_routes":[]
    },"2943":{"name":"Gibson @ Maxwell","desc":"3620 GIBSON BLVD SE \u0026 MAXWELL ST SE","coordinates":[-106.6016,35.0581],"related_stops":["2943"],"transfer_routes":["3117","3145"],"related_routes":[]
    },"2945":{"name":"Gibson @ Washington","desc":"GIBSON BLVD SE \u0026 WASHINGTON ST SE","coordinates":[-106.595,35.0581],"related_stops":["2945","2923"],"transfer_routes":["3117","3145"],"related_routes":[]
    },"2947":{"name":"Gibson @ Truman","desc":"GIBSON BLVD SE \u0026 TRUMAN ST SE","coordinates":[-106.589,35.0581],"related_stops":["2921","2947","6398","6382"],"transfer_routes":["3117","3145","3122"],"related_routes":[]
    },"2949":{"name":"Gibson @ San Mateo","desc":"GIBSON \u0026 SAN MATEO","coordinates":[-106.5866,35.0582],"related_stops":["2919","2949","2951","6516","6494","7228"],"transfer_routes":["3117","3145"],"related_routes":["3113","3114","3121","3122"]
    },"2951":{"name":"Gibson @ San Mateo","desc":"5110 GIBSON BLVD SE \u0026 ORTIZ DR SE","coordinates":[-106.5849,35.0582],"related_stops":["2919","2949","2951","6516","6494","7228"],"transfer_routes":["3117","3121","3122"],"related_routes":["3145","3113","3114"]
    },"2953":{"name":"Gibson @ Valencia","desc":"5402 GIBSON BLVD SE","coordinates":[-106.5818,35.0582],"related_stops":["6392","2955","2953","6394"],"transfer_routes":["3117","3145"],"related_routes":["3122"]
    },"2955":{"name":"Gibson @ Valencia","desc":"5520 GIBSON BLVD SE \u0026 CARDENAS DR SE","coordinates":[-106.5802,35.0582],"related_stops":["6392","2955","2953","6394"],"transfer_routes":["3117","3122"],"related_routes":["3145"]
    },"2957":{"name":"Gibson @ San Pedro","desc":"5740 GIBSON BLVD SE \u0026 SAN PEDRO DR SE","coordinates":[-106.5778,35.0582],"related_stops":["2801","6002","2917","2957","6210","6212","2799"],"transfer_routes":["3117","3145"],"related_routes":["3126","3116","3122"]
    },"2959":{"name":"Gibson @ Louisiana","desc":"6422 GIBSON BLVD SE \u0026 INDIANA ST SE","coordinates":[-106.5707,35.0581],"related_stops":["6386","2807","2789","7344","2915","2959","5706","6384"],"transfer_routes":["3145"],"related_routes":["3117","3116"]
    },"3094":{"name":"Girard @ Central","desc":"111 GIRARD BLVD SE","coordinates":[-106.6134,35.0803],"related_stops":["4671","4673","4669","3094","6366","4467","4465","5694"],"transfer_routes":["3117"],"related_routes":["3136"]
    },"3185":{"name":"Coal @ Hazeldine","desc":"COAL AVE SE \u0026 HAZELDINE AVE SE","coordinates":[-106.6281,35.0764],"related_stops":["6438","3491","7428","6440","6338","3185"],"transfer_routes":["3146"],"related_routes":["3117","3142","3121"]
    },"3471":{"name":"Lead @ Carlisle","desc":"3603 LEAD AVE SE \u0026 CARLISLE BLVD SE","coordinates":[-106.6044,35.0773],"related_stops":["3497","6412","6368","3471"],"transfer_routes":["3146"],"related_routes":["3117"]
    },"3485":{"name":"Coal @ Broadway","desc":"338 COAL AVE SE \u0026 BROADWAY BLVD SE","coordinates":[-106.6449,35.0796],"related_stops":["3485","6452","6318"],"transfer_routes":["3146"],"related_routes":["3117"]
    },"3491":{"name":"Coal @ University","desc":"1818 COAL AVE SE","coordinates":[-106.6258,35.0749],"related_stops":["6438","3491","7428","6440","6338","3185"],"transfer_routes":["3146"],"related_routes":["3117","3142","3121"]
    },"3497":{"name":"Coal @ Carlisle","desc":"3508 COAL AVE SE \u0026 CARLISLE BLVD SE","coordinates":[-106.6048,35.0754],"related_stops":["3497","6412","6368","3471"],"transfer_routes":["3146"],"related_routes":["3117"]
    },"3519":{"name":"Broadway @ Lomas","desc":"810 BROADWAY BLVD NE","coordinates":[-106.6431,35.0907],"related_stops":["5091","3755","4849","3519","4851","7686","5089"],"transfer_routes":["3135","3117"],"related_routes":["3110"]
    },"3521":{"name":"Broadway @ Mountain","desc":"1116 BROADWAY BLVD NE \u0026 GRANITE AVE NE","coordinates":[-106.6426,35.0938],"related_stops":["5095","3751","5107","3521","5105","5097","5099"],"transfer_routes":["3135","3117"],"related_routes":["3129"]
    },"3523":{"name":"Broadway @ Rosemont","desc":"1312 BROADWAY BLVD NE \u0026 ROSEMONT AVE NE","coordinates":[-106.6422,35.0956],"related_stops":["3523","3749"],"transfer_routes":["3135","3117"],"related_routes":[]
    },"3529":{"name":"Odelia @ Edith","desc":"520 ODELIA RD NE \u0026 EDITH BLVD NE","coordinates":[-106.6388,35.099],"related_stops":["3529","3745"],"transfer_routes":["3135","3117"],"related_routes":[]
    },"3531":{"name":"Odelia @ I 25 Frontage Rd.","desc":"1008 INDIAN SCHOOL RD NE \u0026 LOCUST PL NE","coordinates":[-106.6349,35.0984],"related_stops":["3531","3743"],"transfer_routes":["3135","3117"],"related_routes":[]
    },"3533":{"name":"Indian School @ University","desc":"1656 INDIAN SCHOOL RD NE","coordinates":[-106.6266,35.0994],"related_stops":["3741","3533","6324"],"transfer_routes":["3135"],"related_routes":["3117"]
    },"3741":{"name":"Indian School @ University","desc":"1463 INDIAN SCHOOL RD NE \u0026 UNIVERSITY BLVD NE","coordinates":[-106.6278,35.0988],"related_stops":["3741","3533","6324"],"transfer_routes":["3135","3117"],"related_routes":[]
    },"3743":{"name":"Odelia @ Locust","desc":"1007 INDIAN SCHOOL RD NE \u0026 LOCUST PL NE","coordinates":[-106.6351,35.0987],"related_stops":["3531","3743"],"transfer_routes":["3135","3117"],"related_routes":[]
    },"3745":{"name":"Odelia @ Edith","desc":"519 ODELIA RD NE \u0026 EDITH BLVD NE","coordinates":[-106.6389,35.0992],"related_stops":["3529","3745"],"transfer_routes":["3135","3117"],"related_routes":[]
    },"3747":{"name":"Broadway @ Odelia","desc":"1483 BROADWAY BLVD NE","coordinates":[-106.6419,35.0983],"related_stops":["5816","3747"],"transfer_routes":["3135","3117"],"related_routes":[]
    },"3749":{"name":"Broadway @ Rosemont","desc":"1303 BROADWAY BLVD NE \u0026 ROSEMONT AVE NE","coordinates":[-106.6424,35.0954],"related_stops":["3523","3749"],"transfer_routes":["3135","3117"],"related_routes":[]
    },"3751":{"name":"Broadway @ Mountain","desc":"1021 BROADWAY BLVD NE \u0026 MAGGIES AVE NE","coordinates":[-106.6429,35.0932],"related_stops":["5095","3751","5107","3521","5105","5097","5099"],"transfer_routes":["3135","3117"],"related_routes":["3129"]
    },"3755":{"name":"Lomas @ Broadway","desc":"LOMAS \u0026 BROADWAY","coordinates":[-106.645,35.0906],"related_stops":["5091","3755","4849","3519","4851","7686","5089"],"transfer_routes":["3135","3110"],"related_routes":["3117"]
    },"3757":{"name":"Tijeras @ Broadway","desc":"MARTIN LUTHER KING AVE NE","coordinates":[-106.6449,35.0859],"related_stops":["1577","1597","7678","6322","3757"],"transfer_routes":["3111","3130","3142"],"related_routes":["3117"]
    },"3773":{"name":"Martin Luther King @ University","desc":"1624 MARTIN LUTHER KING AVE NE \u0026 GRAND AVE NE","coordinates":[-106.6266,35.0841],"related_stops":["1583","1593","3773","7408","7410","6332"],"transfer_routes":["3111","3130"],"related_routes":["3117","3142"]
    },"3787":{"name":"Yale @ Kathryn","desc":"1317 YALE BLVD SE \u0026 KATHRYN AVE SE","coordinates":[-106.6221,35.0663],"related_stops":["3787","6424","3823","6354"],"transfer_routes":["3130"],"related_routes":["3117"]
    },"3795":{"name":"Yale @ Gibson","desc":"2025 YALE BLVD SE","coordinates":[-106.6222,35.0589],"related_stops":["3797","2937","3817","5670","3795","3815"],"transfer_routes":["3117","3130"],"related_routes":["3145","3121"]
    },"3797":{"name":"Yale @ Gibson","desc":"2215 YALE BLVD SE \u0026 MILES RD SE","coordinates":[-106.6222,35.0571],"related_stops":["3797","2937","3817","5670","3795","3815"],"transfer_routes":["3130"],"related_routes":["3117","3145","3121"]
    },"3815":{"name":"Yale @ Renard","desc":"2228 YALE BLVD SE \u0026 RENARD PL SE","coordinates":[-106.6218,35.0567],"related_stops":["3797","2937","3817","5670","3795","3815"],"transfer_routes":["3130"],"related_routes":["3117","3145","3121"]
    },"3817":{"name":"Yale @ Gibson","desc":"YALE \u0026 GIBSON","coordinates":[-106.6219,35.0594],"related_stops":["3797","2937","3817","5670","3795","3815"],"transfer_routes":["3117","3130"],"related_routes":["3145","3121"]
    },"3819":{"name":"Yale @ Ross","desc":"1810 YALE BLVD SE \u0026 ROSS AVE SE","coordinates":[-106.6219,35.0621],"related_stops":["3819","7320"],"transfer_routes":["3117","3130"],"related_routes":[]
    },"3821":{"name":"Yale @ Anderson","desc":"1602 YALE BLVD SE \u0026 ANDERSON AVE SE","coordinates":[-106.6219,35.0641],"related_stops":["5652","3821"],"transfer_routes":["3117","3130"],"related_routes":[]
    },"3823":{"name":"Yale @ Kathryn","desc":"1310 YALE BLVD SE","coordinates":[-106.6219,35.0668],"related_stops":["3787","6424","3823","6354"],"transfer_routes":["3130"],"related_routes":["3117"]
    },"3849":{"name":"University @ Mesa Vista","desc":"1702 MESA VISTA RD NE \u0026 UNIVERSITY BLVD NE","coordinates":[-106.6252,35.0885],"related_stops":["3849"],"transfer_routes":["3111","3117"],"related_routes":[]
    },"4063":{"name":"Lomas @ Yale","desc":"1911 LOMAS BLVD NE \u0026 YALE BLVD NE","coordinates":[-106.6216,35.0887],"related_stops":["4063","4065","7238","6330","6328","5079","1587","5662","7283"],"transfer_routes":["3129","3110","3111"],"related_routes":["3117","3142"]
    },"4065":{"name":"Lomas @ Yale","desc":"1813 LOMAS BLVD NE","coordinates":[-106.6234,35.0896],"related_stops":["4063","4065","7238","6330","6328","5079","1587","5662","7283"],"transfer_routes":["3129","3110","3111"],"related_routes":["3117","3142"]
    },"4067":{"name":"University @ Las Lomas","desc":"709 UNIVERSITY BLVD NE \u0026 LAS LOMAS RD NE","coordinates":[-106.6257,35.0871],"related_stops":["4067","1585"],"transfer_routes":["3111","3117"],"related_routes":["3142"]
    },"4439":{"name":"1st @ Central (in front of A.T.C.)","desc":"110 1ST ST SW","coordinates":[-106.6481,35.0835],"related_stops":["4703","6930","4835","4439","4837","4441","4701","6932","4841","4831","4843","4833","4845","6972","4847","4839","4829","9999"],"transfer_routes":["3136"],"related_routes":["3129","3135","3137","3141","3109","3110","3111","3112","3117","3127","3128","3130","3132","3133","3143","3144","3146","3121","3123","3138","3139"]
    },"4441":{"name":"1st @ Central (in front of A.T.C.)","desc":"1ST ST SW \u0026 1ST ST NW","coordinates":[-106.648,35.0838],"related_stops":["4703","6930","4835","4439","4837","4441","4701","6932","4841","4831","4843","4833","4845","6972","4847","4839","4829","9999"],"transfer_routes":["3138","3139"],"related_routes":["3129","3135","3137","3141","3109","3110","3111","3112","3117","3127","3128","3130","3132","3133","3136","3143","3144","3146","3121","3123"]
    },"4443":{"name":"Central @ Broadway","desc":"214 CENTRAL AVE E \u0026 BROADWAY BLVD SE","coordinates":[-106.6452,35.0836],"related_stops":["6448","4443"],"transfer_routes":["3136"],"related_routes":["3117"]
    },"4457":{"name":"Central @ Mesa","desc":"103 MESA ST SE \u0026 CENTRAL AVE E","coordinates":[-106.6257,35.0811],"related_stops":["4681","4683","6444","6446","6334","4457"],"transfer_routes":["3136"],"related_routes":["3117","3142"]
    },"4465":{"name":"Central @ Columbia","desc":"2608 CENTRAL AVE E \u0026 COLUMBIA DR SE","coordinates":[-106.6167,35.0809],"related_stops":["4671","4673","4669","3094","6366","4467","4465","5694"],"transfer_routes":["3136"],"related_routes":["3117"]
    },"4467":{"name":"Central @ Vassar","desc":"2808 CENTRAL AVE E \u0026 VASSAR DR SE","coordinates":[-106.6142,35.0809],"related_stops":["4671","4673","4669","3094","6366","4467","4465","5694"],"transfer_routes":["3136"],"related_routes":["3117"]
    },"4471":{"name":"Central @ Tulane","desc":"3320 CENTRAL AVE E \u0026 TULANE DR NE","coordinates":[-106.6075,35.0801],"related_stops":["5690","4471"],"transfer_routes":["3117","3136"],"related_routes":[]
    },"4475":{"name":"Central @ Carlisle","desc":"3600 CENTRAL AVE E \u0026 HERMOSA DR SE","coordinates":[-106.6037,35.0796],"related_stops":["6414","4475","7474","5752"],"transfer_routes":["3136","3138","3139"],"related_routes":["3117"]
    },"4669":{"name":"Central @ Girard","desc":"2923 CENTRAL AVE E \u0026 GIRARD BLVD SE","coordinates":[-106.6127,35.081],"related_stops":["4671","4673","4669","3094","6366","4467","4465","5694"],"transfer_routes":["3136"],"related_routes":["3117"]
    },"4671":{"name":"Central @ Girard","desc":"2815 CENTRAL AVE E","coordinates":[-106.6139,35.0811],"related_stops":["4671","4673","4669","3094","6366","4467","4465","5694"],"transfer_routes":["3136"],"related_routes":["3117"]
    },"4673":{"name":"Central @ Girard","desc":"2627 CENTRAL AVE E \u0026 PRINCETON DR SE","coordinates":[-106.616,35.0811],"related_stops":["4671","4673","4669","3094","6366","4467","4465","5694"],"transfer_routes":["3136"],"related_routes":["3117"]
    },"4681":{"name":"Central @ University","desc":"1903 CENTRAL AVE E \u0026 MESA ST SE","coordinates":[-106.6254,35.0813],"related_stops":["4681","4683","6444","6446","6334","4457"],"transfer_routes":["3136"],"related_routes":["3117","3142"]
    },"4683":{"name":"Central @ University","desc":"1703 CENTRAL AVE E \u0026 PINE ST NE","coordinates":[-106.6273,35.0815],"related_stops":["4681","4683","6444","6446","6334","4457"],"transfer_routes":["3136"],"related_routes":["3117","3142"]
    },"4701":{"name":"Central @ 1st (across from A.T.C.)","desc":"107 CENTRAL AVE W \u0026 1ST ST NW","coordinates":[-106.6484,35.0842],"related_stops":["4703","6930","4835","4439","4837","4441","4701","6932","4841","4831","4843","4833","4845","6972","4847","4839","4829","9999"],"transfer_routes":["3138","3139"],"related_routes":["3129","3135","3137","3141","3109","3110","3111","3112","3117","3127","3128","3130","3132","3133","3136","3143","3144","3146","3121","3123"]
    },"4703":{"name":"Central @ 1st (across from A.T.C.)","desc":"113 CENTRAL AVE W","coordinates":[-106.6487,35.0843],"related_stops":["4703","6930","4835","4439","4837","4441","4701","6932","4841","4831","4843","4833","4845","6972","4847","4839","4829","9999"],"transfer_routes":["3136"],"related_routes":["3129","3135","3137","3141","3109","3110","3111","3112","3117","3127","3128","3130","3132","3133","3143","3144","3146","3121","3123","3138","3139"]
    },"4829":{"name":"A.T.C.  (Bay K)","desc":"GOLD AVE SW","coordinates":[-106.6478,35.0827],"related_stops":["4703","6930","4835","4439","4837","4441","4701","6932","4841","4831","4843","4833","4845","6972","4847","4839","4829","9999"],"transfer_routes":["3121"],"related_routes":["3129","3135","3137","3141","3109","3110","3111","3112","3117","3127","3128","3130","3132","3133","3136","3143","3144","3146","3123","3138","3139"]
    },"4831":{"name":"A.T.C.  (Bay L)","desc":"1ST ST SW \u0026 GOLD AVE SW","coordinates":[-106.6477,35.0829],"related_stops":["4703","6930","4835","4439","4837","4441","4701","6932","4841","4831","4843","4833","4845","6972","4847","4839","4829","9999"],"transfer_routes":["3133"],"related_routes":["3129","3135","3137","3141","3109","3110","3111","3112","3117","3127","3128","3130","3132","3136","3143","3144","3146","3121","3123","3138","3139"]
    },"4833":{"name":"A.T.C.  (Bay M)","desc":"1ST ST SW \u0026 GOLD AVE SW","coordinates":[-106.6477,35.0831],"related_stops":["4703","6930","4835","4439","4837","4441","4701","6932","4841","4831","4843","4833","4845","6972","4847","4839","4829","9999"],"transfer_routes":["3135","3111","3117"],"related_routes":["3129","3137","3141","3109","3110","3112","3127","3128","3130","3132","3133","3136","3143","3144","3146","3121","3123","3138","3139"]
    },"4835":{"name":"A.T.C.  (Bay C)","desc":"CENTRAL AVE W \u0026 COPPER AVE NW","coordinates":[-106.6476,35.0837],"related_stops":["4703","6930","4835","4439","4837","4441","4701","6932","4841","4831","4843","4833","4845","6972","4847","4839","4829","9999"],"transfer_routes":["3109"],"related_routes":["3129","3135","3137","3141","3110","3111","3112","3117","3127","3128","3130","3132","3133","3136","3143","3144","3146","3121","3123","3138","3139"]
    },"4837":{"name":"A.T.C.  (Bay D)","desc":"","coordinates":[-106.6475,35.0836],"related_stops":["4703","6930","4835","4439","4837","4441","4701","6932","4841","4831","4843","4833","4845","6972","4847","4839","4829","9999"],"transfer_routes":["3110"],"related_routes":["3129","3135","3137","3141","3109","3111","3112","3117","3127","3128","3130","3132","3133","3136","3143","3144","3146","3121","3123","3138","3139"]
    },"4839":{"name":"A.T.C.  (Bay E)","desc":"","coordinates":[-106.6475,35.0834],"related_stops":["4703","6930","4835","4439","4837","4441","4701","6932","4841","4831","4843","4833","4845","6972","4847","4839","4829","9999"],"transfer_routes":["3144","3123"],"related_routes":["3129","3135","3137","3141","3109","3110","3111","3112","3117","3127","3128","3130","3132","3133","3136","3143","3146","3121","3138","3139"]
    },"4841":{"name":"A.T.C.  (Bay F)","desc":"","coordinates":[-106.6475,35.0832],"related_stops":["4703","6930","4835","4439","4837","4441","4701","6932","4841","4831","4843","4833","4845","6972","4847","4839","4829","9999"],"transfer_routes":["3132"],"related_routes":["3129","3135","3137","3141","3109","3110","3111","3112","3117","3127","3128","3130","3133","3136","3143","3144","3146","3121","3123","3138","3139"]
    },"4843":{"name":"A.T.C.  (Bay G)","desc":"","coordinates":[-106.6476,35.083],"related_stops":["4703","6930","4835","4439","4837","4441","4701","6932","4841","4831","4843","4833","4845","6972","4847","4839","4829","9999"],"transfer_routes":["3129"],"related_routes":["3135","3137","3141","3109","3110","3111","3112","3117","3127","3128","3130","3132","3133","3136","3143","3144","3146","3121","3123","3138","3139"]
    },"4845":{"name":"A.T.C.  (Bay H)","desc":"","coordinates":[-106.6476,35.0829],"related_stops":["4703","6930","4835","4439","4837","4441","4701","6932","4841","4831","4843","4833","4845","6972","4847","4839","4829","9999"],"transfer_routes":["3141"],"related_routes":["3129","3135","3137","3109","3110","3111","3112","3117","3127","3128","3130","3132","3133","3136","3143","3144","3146","3121","3123","3138","3139"]
    },"4847":{"name":"A.T.C.  (Bay J)","desc":"","coordinates":[-106.6476,35.0827],"related_stops":["4703","6930","4835","4439","4837","4441","4701","6932","4841","4831","4843","4833","4845","6972","4847","4839","4829","9999"],"transfer_routes":["3146"],"related_routes":["3129","3135","3137","3141","3109","3110","3111","3112","3117","3127","3128","3130","3132","3133","3136","3143","3144","3121","3123","3138","3139"]
    },"4849":{"name":"Lomas @ Broadway","desc":"LOMAS \u0026 BROADWAY","coordinates":[-106.6439,35.0902],"related_stops":["5091","3755","4849","3519","4851","7686","5089"],"transfer_routes":["3135","3110"],"related_routes":["3117"]
    },"4851":{"name":"Lomas @ Broadway","desc":"304 LOMAS BLVD NE","coordinates":[-106.6428,35.0901],"related_stops":["5091","3755","4849","3519","4851","7686","5089"],"transfer_routes":["3110"],"related_routes":["3135","3117"]
    },"5079":{"name":"Lomas @ University","desc":"1547 LOMAS BLVD NE","coordinates":[-106.6259,35.0907],"related_stops":["4063","4065","7238","6330","6328","5079","1587","5662","7283"],"transfer_routes":["3129","3110"],"related_routes":["3111","3117","3142"]
    },"5089":{"name":"Lomas @ Broadway","desc":"309 LOMAS BLVD NE \u0026 BROADWAY BLVD NE","coordinates":[-106.643,35.0904],"related_stops":["5091","3755","4849","3519","4851","7686","5089"],"transfer_routes":["3110"],"related_routes":["3135","3117"]
    },"5091":{"name":"Lomas @ Broadway","desc":"279 LOMAS BLVD NE \u0026 BROADWAY BLVD NE","coordinates":[-106.6436,35.0904],"related_stops":["5091","3755","4849","3519","4851","7686","5089"],"transfer_routes":["3135","3110"],"related_routes":["3117"]
    },"5095":{"name":"Mountain @ Broadway","desc":"112 MOUNTAIN RD NE","coordinates":[-106.6443,35.0944],"related_stops":["5095","3751","5107","3521","5105","5097","5099"],"transfer_routes":["3129"],"related_routes":["3135","3117"]
    },"5097":{"name":"Mountain @ Broadway","desc":"314 MOUNTAIN RD NE","coordinates":[-106.642,35.0943],"related_stops":["5095","3751","5107","3521","5105","5097","5099"],"transfer_routes":["3129"],"related_routes":["3135","3117"]
    },"5099":{"name":"Mountain @ Edith","desc":"504 MOUNTAIN RD NE \u0026 EDITH BLVD NE","coordinates":[-106.6398,35.0942],"related_stops":["5095","3751","5107","3521","5105","5097","5099"],"transfer_routes":["3129"],"related_routes":["3135","3117"]
    },"5105":{"name":"Mountain @ Edith","desc":"407 MOUNTAIN RD NE","coordinates":[-106.641,35.0944],"related_stops":["5095","3751","5107","3521","5105","5097","5099"],"transfer_routes":["3129"],"related_routes":["3135","3117"]
    },"5107":{"name":"Mountain @ Broadway","desc":"113 MOUNTAIN RD NE","coordinates":[-106.6442,35.0945],"related_stops":["5095","3751","5107","3521","5105","5097","5099"],"transfer_routes":["3129"],"related_routes":["3135","3117"]
    },"5646":{"name":"University @ Isotopes Stadium","desc":"1112 UNIVERSITY BLVD SE \u0026 SHIELDS  SE","coordinates":[-106.6307,35.0701],"related_stops":["5646","6344"],"transfer_routes":["3117","3142","3121"],"related_routes":[]
    },"5652":{"name":"Yale @ Anderson","desc":"1519 YALE BLVD SE \u0026 ANDERSON AVE SE","coordinates":[-106.6221,35.0644],"related_stops":["5652","3821"],"transfer_routes":["3117","3130"],"related_routes":[]
    },"5662":{"name":"Lomas @ University","desc":"1560 LOMAS BLVD NE \u0026 UNIVERSITY BLVD NE","coordinates":[-106.6258,35.0904],"related_stops":["4063","4065","7238","6330","6328","5079","1587","5662","7283"],"transfer_routes":["3129","3110"],"related_routes":["3111","3117","3142"]
    },"5664":{"name":"Gibson @ Buena Vista","desc":"1903 GIBSON BLVD SE","coordinates":[-106.6255,35.0586],"related_stops":["5664"],"transfer_routes":["3117"],"related_routes":[]
    },"5670":{"name":"Gibson @ Yale","desc":"2111 GIBSON BLVD SE \u0026 YALE BLVD SE","coordinates":[-106.6225,35.0586],"related_stops":["3797","2937","3817","5670","3795","3815"],"transfer_routes":["3117","3145","3121"],"related_routes":["3130"]
    },"5690":{"name":"Central @ Tulane","desc":"3333 CENTRAL AVE E \u0026 TULANE DR NE","coordinates":[-106.6073,35.0803],"related_stops":["5690","4471"],"transfer_routes":["3117","3136"],"related_routes":[]
    },"5692":{"name":"Central @ Bryn Mawr","desc":"3121 CENTRAL AVE E \u0026 BRYN MAWR DR NE","coordinates":[-106.6098,35.0806],"related_stops":["5692"],"transfer_routes":["3117","3136"],"related_routes":[]
    },"5694":{"name":"Central @ Dartmouth","desc":"3006 CENTRAL AVE E \u0026 DARTMOUTH DR NE","coordinates":[-106.6118,35.0807],"related_stops":["4671","4673","4669","3094","6366","4467","4465","5694"],"transfer_routes":["3117","3136"],"related_routes":[]
    },"5706":{"name":"Louisiana @ Gibson","desc":"1206 LOUISIANA BLVD SE \u0026 UNKNOWN","coordinates":[-106.5687,35.058],"related_stops":["6386","2807","2789","7344","2915","2959","5706","6384"],"transfer_routes":["3116"],"related_routes":["3117","3145"]
    },"5748":{"name":"University @ Camino de Salud","desc":"1205 UNIVERSITY BLVD NE \u0026 CAMINO DE SALUD  NE","coordinates":[-106.6266,35.0949],"related_stops":["7676","5748"],"transfer_routes":["3117"],"related_routes":[]
    },"5752":{"name":"Carlisle @ Silver","desc":"203 CARLISLE BLVD SE \u0026 SILVER AVE SE","coordinates":[-106.6046,35.0788],"related_stops":["6414","4475","7474","5752"],"transfer_routes":["3117"],"related_routes":["3136","3138","3139"]
    },"5816":{"name":"Broadway @ Odelia","desc":"1500 BROADWAY BLVD NE \u0026 ODELIA RD NE","coordinates":[-106.6417,35.0985],"related_stops":["5816","3747"],"transfer_routes":["3135","3117"],"related_routes":[]
    },"6002":{"name":"San Pedro @ Gibson","desc":"SAN PEDRO \u0026 GIBSON","coordinates":[-106.5775,35.0587],"related_stops":["2801","6002","2917","2957","6210","6212","2799"],"transfer_routes":["3126"],"related_routes":["3117","3145","3116","3122"]
    },"6210":{"name":"San Pedro @ Gibson","desc":"SAN PEDRO \u0026 GIBSON","coordinates":[-106.5777,35.0591],"related_stops":["2801","6002","2917","2957","6210","6212","2799"],"transfer_routes":["3126"],"related_routes":["3117","3145","3116","3122"]
    },"6212":{"name":"San Pedro @ Gibson","desc":"1311 SAN PEDRO DR SE","coordinates":[-106.5777,35.0576],"related_stops":["2801","6002","2917","2957","6210","6212","2799"],"transfer_routes":["3126","3116"],"related_routes":["3117","3145","3122"]
    },"6296":{"name":"Broadway @ San Jose","desc":"2610 BROADWAY BLVD SE \u0026 SAN JOSE AVE SE","coordinates":[-106.6451,35.0551],"related_stops":["7672","6296"],"transfer_routes":["3117"],"related_routes":[]
    },"6300":{"name":"Broadway @ Gibson","desc":"2336 BROADWAY BLVD SE \u0026 ETHLYN AVE SE","coordinates":[-106.6451,35.0591],"related_stops":["6302","6300"],"transfer_routes":["3117"],"related_routes":[]
    },"6302":{"name":"Broadway @ Gibson","desc":"2108 BROADWAY BLVD SE \u0026 THAXTON AVE SE","coordinates":[-106.6452,35.0616],"related_stops":["6302","6300"],"transfer_routes":["3117"],"related_routes":[]
    },"6304":{"name":"Broadway @ Anderson","desc":"501 ANDERSON AVE SE \u0026 BROADWAY BLVD SE","coordinates":[-106.6452,35.063],"related_stops":["6304"],"transfer_routes":["3117"],"related_routes":[]
    },"6306":{"name":"Broadway @ Kathryn","desc":"1804 BROADWAY BLVD SE \u0026 KATHRYN AVE SE","coordinates":[-106.6453,35.0655],"related_stops":["6306"],"transfer_routes":["3117"],"related_routes":[]
    },"6308":{"name":"Broadway @ Dan","desc":"1520 BROADWAY BLVD SE \u0026 DAN AVE SE","coordinates":[-106.6453,35.0678],"related_stops":["6308"],"transfer_routes":["3117"],"related_routes":[]
    },"6310":{"name":"Broadway @ Avenida Cesar Chavez","desc":"1310 BROADWAY BLVD SE \u0026 AVENIDA CESAR CHAVEZ  SE","coordinates":[-106.6454,35.0701],"related_stops":["6460","6462","6310"],"transfer_routes":["3117"],"related_routes":[]
    },"6312":{"name":"Broadway @ Garfield","desc":"1106 BROADWAY BLVD SE \u0026 GARFIELD AVE SE","coordinates":[-106.6455,35.0723],"related_stops":["6458","6312"],"transfer_routes":["3117"],"related_routes":[]
    },"6314":{"name":"Broadway @ Santa Fe","desc":"302 SANTA FE AVE SE \u0026 BROADWAY BLVD SE","coordinates":[-106.6456,35.0754],"related_stops":["6456","6314"],"transfer_routes":["3117"],"related_routes":[]
    },"6316":{"name":"Broadway @ Hazeldine","desc":"638 BROADWAY BLVD SE \u0026 HAZELDINE AVE SE","coordinates":[-106.6457,35.0773],"related_stops":["6454","6316"],"transfer_routes":["3117"],"related_routes":[]
    },"6318":{"name":"Broadway @ Iron","desc":"512 BROADWAY BLVD SE \u0026 IRON AVE SE","coordinates":[-106.6454,35.079],"related_stops":["3485","6452","6318"],"transfer_routes":["3117"],"related_routes":["3146"]
    },"6322":{"name":"Broadway @ Martin Luther King","desc":"408 BROADWAY BLVD NE \u0026 MARQUETTE AVE NE","coordinates":[-106.6439,35.0869],"related_stops":["1577","1597","7678","6322","3757"],"transfer_routes":["3117"],"related_routes":["3111","3130","3142"]
    },"6324":{"name":"University @ Indian School","desc":"1421 UNIVERSITY BLVD NE","coordinates":[-106.6273,35.0985],"related_stops":["3741","3533","6324"],"transfer_routes":["3117"],"related_routes":["3135"]
    },"6326":{"name":"University @ Carrie Tingley Hospita","desc":"1123 UNIVERSITY BLVD NE","coordinates":[-106.6262,35.0936],"related_stops":["6326"],"transfer_routes":["3117"],"related_routes":[]
    },"6328":{"name":"University @ Lomas","desc":"1011 UNIVERSITY BLVD NE","coordinates":[-106.6254,35.0907],"related_stops":["4063","4065","7238","6330","6328","5079","1587","5662","7283"],"transfer_routes":["3117"],"related_routes":["3129","3110","3111","3142"]
    },"6330":{"name":"University @ Lomas","desc":"937 UNIVERSITY BLVD NE","coordinates":[-106.6255,35.0899],"related_stops":["4063","4065","7238","6330","6328","5079","1587","5662","7283"],"transfer_routes":["3111","3117"],"related_routes":["3129","3110","3142"]
    },"6332":{"name":"University @ Martin Luther King","desc":"305 UNIVERSITY BLVD NE","coordinates":[-106.6265,35.0837],"related_stops":["1583","1593","3773","7408","7410","6332"],"transfer_routes":["3117","3142"],"related_routes":["3111","3130"]
    },"6334":{"name":"University @ Central","desc":"105 UNIVERSITY BLVD NE \u0026 CENTRAL AVE E","coordinates":[-106.6269,35.0817],"related_stops":["4681","4683","6444","6446","6334","4457"],"transfer_routes":["3117","3142"],"related_routes":["3136"]
    },"6336":{"name":"University @ Lead","desc":"303 UNIVERSITY BLVD SE \u0026 SILVER AVE SE","coordinates":[-106.6274,35.0791],"related_stops":["6442","6336"],"transfer_routes":["3117","3142"],"related_routes":[]
    },"6338":{"name":"University @ Coal","desc":"1715 COAL PL SE \u0026 UNIVERSITY BLVD SE","coordinates":[-106.6277,35.0776],"related_stops":["6438","3491","7428","6440","6338","3185"],"transfer_routes":["3117"],"related_routes":["3142","3146","3121"]
    },"6344":{"name":"University @ Shields-Research Park","desc":"","coordinates":[-106.6311,35.0706],"related_stops":["5646","6344"],"transfer_routes":["3117","3142","3121"],"related_routes":[]
    },"6346":{"name":"University @ Avenida Cesar Chavez","desc":"1703 UNIVERSITY BLVD SE \u0026 AVENIDA CESAR CHAVEZ  SE","coordinates":[-106.631,35.0681],"related_stops":["6346"],"transfer_routes":["3117"],"related_routes":[]
    },"6350":{"name":"University @ Sunshine Terrace","desc":"1719 UNIVERSITY BLVD SE \u0026 SUNSHINE TERRACE AVE SE","coordinates":[-106.6315,35.0639],"related_stops":["6430","6350"],"transfer_routes":["3117"],"related_routes":[]
    },"6352":{"name":"University @ Gibson","desc":"1909 UNIVERSITY BLVD SE \u0026 EASTERN AVE SE","coordinates":[-106.6316,35.0605],"related_stops":["2933","2935","6428","7422","6352"],"transfer_routes":["3117","3121"],"related_routes":["3145"]
    },"6354":{"name":"Kathryn @ Yale","desc":"2210 KATHRYN AVE SE \u0026 DICKERSON DR SE","coordinates":[-106.6214,35.0656],"related_stops":["3787","6424","3823","6354"],"transfer_routes":["3117"],"related_routes":["3130"]
    },"6356":{"name":"Kathryn @ Cornell","desc":"KATHRYN AVE SE \u0026 CORNELL DR SE","coordinates":[-106.6188,35.0656],"related_stops":["6422","6356"],"transfer_routes":["3117"],"related_routes":[]
    },"6362":{"name":"Girard @ Santa Monica","desc":"800 GIRARD BLVD SE \u0026 SANTA MONICA AVE SE","coordinates":[-106.6133,35.0706],"related_stops":["6418","6362"],"transfer_routes":["3117"],"related_routes":[]
    },"6364":{"name":"Girard @ Burton","desc":"514 GIRARD BLVD SE \u0026 BURTON AVE SE","coordinates":[-106.6133,35.0722],"related_stops":["6364"],"transfer_routes":["3117"],"related_routes":[]
    },"6366":{"name":"Girard @ Central","desc":"112 GIRARD BLVD SE","coordinates":[-106.6132,35.0802],"related_stops":["4671","4673","4669","3094","6366","4467","4465","5694"],"transfer_routes":["3117"],"related_routes":["3136"]
    },"6368":{"name":"Carlisle @ Coal","desc":"319 CARLISLE BLVD SE","coordinates":[-106.6046,35.0759],"related_stops":["3497","6412","6368","3471"],"transfer_routes":["3117"],"related_routes":["3146"]
    },"6370":{"name":"Carlisle @ Garfield","desc":"421 CARLISLE BLVD SE \u0026 GARFIELD AVE SE","coordinates":[-106.6046,35.0738],"related_stops":["6410","6370"],"transfer_routes":["3117"],"related_routes":[]
    },"6372":{"name":"Carlisle @ Pershing","desc":"621 CARLISLE BLVD SE \u0026 PERSHING AVE SE","coordinates":[-106.6046,35.0702],"related_stops":["6372","6408"],"transfer_routes":["3117"],"related_routes":[]
    },"6374":{"name":"Carlisle @ San Rafael","desc":"CARLISLE BLVD SE \u0026 CARLISLE PL SE","coordinates":[-106.6047,35.0664],"related_stops":["6406","6374"],"transfer_routes":["3117"],"related_routes":[]
    },"6376":{"name":"Carlisle @ Anderson","desc":"1103 CARLISLE BLVD SE \u0026 SIMMS AVE SE","coordinates":[-106.6044,35.0636],"related_stops":["6404","6376"],"transfer_routes":["3117"],"related_routes":[]
    },"6378":{"name":"Carlisle @ Ross","desc":"CARLISLE BLVD SE \u0026 ROSS AVE SE","coordinates":[-106.6044,35.0621],"related_stops":["6402","6378"],"transfer_routes":["3117"],"related_routes":[]
    },"6380":{"name":"Carlisle @ Eastern","desc":"1505 CARLISLE BLVD SE \u0026 EASTERN AVE SE","coordinates":[-106.6044,35.06],"related_stops":["6380"],"transfer_routes":["3117"],"related_routes":[]
    },"6382":{"name":"Gibson @ Truman","desc":"GIBSON BLVD SE \u0026 JACKSON ST SE","coordinates":[-106.5907,35.0581],"related_stops":["2921","2947","6398","6382"],"transfer_routes":["3117"],"related_routes":["3145","3122"]
    },"6384":{"name":"Kentucky @ Gibson","desc":"1134 KENTUCKY ST SE \u0026 GIBSON BLVD SE","coordinates":[-106.5699,35.0586],"related_stops":["6386","2807","2789","7344","2915","2959","5706","6384"],"transfer_routes":["3117"],"related_routes":["3145","3116"]
    },"6386":{"name":"Eastern @ Louisiana","desc":"6974 EASTERN AVE SE \u0026 LOUISIANA BLVD SE","coordinates":[-106.5691,35.0599],"related_stops":["6386","2807","2789","7344","2915","2959","5706","6384"],"transfer_routes":["3117"],"related_routes":["3145","3116"]
    },"6388":{"name":"Gibson @ Dakota","desc":"6231 GIBSON BLVD SE","coordinates":[-106.5738,35.0584],"related_stops":["2803","6388"],"transfer_routes":["3117","3145","3116"],"related_routes":[]
    },"6392":{"name":"Gibson @ Valencia","desc":"5519 GIBSON BLVD SE \u0026 CARDENAS DR SE","coordinates":[-106.5802,35.0585],"related_stops":["6392","2955","2953","6394"],"transfer_routes":["3117"],"related_routes":["3145","3122"]
    },"6394":{"name":"Gibson @ Valencia","desc":"5317 GIBSON BLVD SE","coordinates":[-106.5821,35.0585],"related_stops":["6392","2955","2953","6394"],"transfer_routes":["3117"],"related_routes":["3145","3122"]
    },"6398":{"name":"Gibson @ Jackson","desc":"4735 GIBSON BLVD SE \u0026 JACKSON ST SE","coordinates":[-106.5913,35.0584],"related_stops":["2921","2947","6398","6382"],"transfer_routes":["3117"],"related_routes":["3145","3122"]
    },"6400":{"name":"Carlisle @ Gibson","desc":"1608 CARLISLE BLVD SE \u0026 CREST AVE SE","coordinates":[-106.6042,35.0589],"related_stops":["2927","2941","7438","6400"],"transfer_routes":["3117"],"related_routes":["3145","3121","3122"]
    },"6402":{"name":"Carlisle @ Vail","desc":"1312 CARLISLE BLVD SE \u0026 VAIL AVE SE","coordinates":[-106.6042,35.0613],"related_stops":["6402","6378"],"transfer_routes":["3117"],"related_routes":[]
    },"6404":{"name":"Carlisle @ Simms","desc":"1104 CARLISLE BLVD SE \u0026 SIMMS AVE SE","coordinates":[-106.6042,35.0635],"related_stops":["6404","6376"],"transfer_routes":["3117"],"related_routes":[]
    },"6406":{"name":"Carlisle @ Parkland Circle","desc":"902 CARLISLE BLVD SE \u0026 KATHRYN AVE SE","coordinates":[-106.6042,35.0659],"related_stops":["6406","6374"],"transfer_routes":["3117"],"related_routes":[]
    },"6408":{"name":"Carlisle @ Pershing","desc":"3603 PERSHING AVE SE \u0026 CARLISLE BLVD SE","coordinates":[-106.6043,35.0702],"related_stops":["6372","6408"],"transfer_routes":["3117"],"related_routes":[]
    },"6410":{"name":"Carlisle @ Garfield","desc":"420 CARLISLE BLVD SE \u0026 GARFIELD AVE SE","coordinates":[-106.6045,35.0738],"related_stops":["6410","6370"],"transfer_routes":["3117"],"related_routes":[]
    },"6412":{"name":"Carlisle @ Lead","desc":"306 CARLISLE BLVD SE","coordinates":[-106.6045,35.0768],"related_stops":["3497","6412","6368","3471"],"transfer_routes":["3117"],"related_routes":["3146"]
    },"6414":{"name":"Carlisle @ Central","desc":"112 CARLISLE BLVD SE \u0026 SILVER AVE SE","coordinates":[-106.6044,35.0791],"related_stops":["6414","4475","7474","5752"],"transfer_routes":["3117"],"related_routes":["3136","3138","3139"]
    },"6418":{"name":"Girard @ Monterey","desc":"809 GIRARD BLVD SE \u0026 MONTEREY AVE SE","coordinates":[-106.6134,35.071],"related_stops":["6418","6362"],"transfer_routes":["3117"],"related_routes":[]
    },"6422":{"name":"Kathryn @ Cromwell","desc":"KATHRYN AVE SE \u0026 CORNELL DR SE","coordinates":[-106.6187,35.0658],"related_stops":["6422","6356"],"transfer_routes":["3117"],"related_routes":[]
    },"6424":{"name":"Kathryn @ Yale","desc":"2213 KATHRYN AVE SE \u0026 DICKERSON DR SE","coordinates":[-106.6213,35.0658],"related_stops":["3787","6424","3823","6354"],"transfer_routes":["3117"],"related_routes":["3130"]
    },"6428":{"name":"University @ Varsity","desc":"1832 UNIVERSITY BLVD SE","coordinates":[-106.6316,35.0615],"related_stops":["2933","2935","6428","7422","6352"],"transfer_routes":["3117","3121"],"related_routes":["3145"]
    },"6430":{"name":"University @ Sunshine Terrace","desc":"","coordinates":[-106.6311,35.0641],"related_stops":["6430","6350"],"transfer_routes":["3117"],"related_routes":[]
    },"6432":{"name":"University @ UNM Pit / Lobo Stadium","desc":"1708 UNIVERSITY BLVD SE","coordinates":[-106.6307,35.0664],"related_stops":["7424","6432"],"transfer_routes":["3117"],"related_routes":[]
    },"6436":{"name":"University @ Basehart (C.N.M.)","desc":"720 UNIVERSITY BLVD SE","coordinates":[-106.6295,35.0733],"related_stops":["7426","6436"],"transfer_routes":["3117","3142","3121"],"related_routes":[]
    },"6438":{"name":"University @ Coal","desc":"UNIVERSITY BLVD SE","coordinates":[-106.6274,35.076],"related_stops":["6438","3491","7428","6440","6338","3185"],"transfer_routes":["3117","3121"],"related_routes":["3142","3146"]
    },"6440":{"name":"University @ Coal Place","desc":"1804 COAL PL SE \u0026 UNIVERSITY BLVD SE","coordinates":[-106.6274,35.0773],"related_stops":["6438","3491","7428","6440","6338","3185"],"transfer_routes":["3117","3142"],"related_routes":["3146","3121"]
    },"6442":{"name":"University @ Silver","desc":"216 UNIVERSITY BLVD SE \u0026 SILVER AVE SE","coordinates":[-106.627,35.0796],"related_stops":["6442","6336"],"transfer_routes":["3117"],"related_routes":["3142"]
    },"6444":{"name":"University @ Central","desc":"104 UNIVERSITY BLVD SE \u0026 CENTRAL AVE E","coordinates":[-106.6267,35.081],"related_stops":["4681","4683","6444","6446","6334","4457"],"transfer_routes":["3117"],"related_routes":["3136","3142"]
    },"6446":{"name":"University @ Central","desc":"108 UNIVERSITY BLVD NE \u0026 CENTRAL AVE E","coordinates":[-106.6266,35.0817],"related_stops":["4681","4683","6444","6446","6334","4457"],"transfer_routes":["3117","3142"],"related_routes":["3136"]
    },"6448":{"name":"Broadway @ Central","desc":"113 BROADWAY BLVD SE","coordinates":[-106.6449,35.0832],"related_stops":["6448","4443"],"transfer_routes":["3117"],"related_routes":["3136"]
    },"6450":{"name":"Broadway @ Silver","desc":"277 SILVER AVE SE \u0026 BROADWAY BLVD SE","coordinates":[-106.6451,35.0818],"related_stops":["6450"],"transfer_routes":["3117"],"related_routes":[]
    },"6452":{"name":"Broadway @ Coal","desc":"509 BROADWAY BLVD SE","coordinates":[-106.6457,35.0793],"related_stops":["3485","6452","6318"],"transfer_routes":["3117"],"related_routes":["3146"]
    },"6454":{"name":"Broadway @ Hazeldine","desc":"639 BROADWAY BLVD SE \u0026 HAZELDINE AVE SE","coordinates":[-106.6459,35.0772],"related_stops":["6454","6316"],"transfer_routes":["3117"],"related_routes":[]
    },"6456":{"name":"Broadway @ Pacific","desc":"823 BROADWAY BLVD SE \u0026 PACIFIC AVE SE","coordinates":[-106.6458,35.0747],"related_stops":["6456","6314"],"transfer_routes":["3117"],"related_routes":[]
    },"6458":{"name":"Broadway @ Cromwell","desc":"1023 BROADWAY BLVD SE \u0026 GARFIELD AVE SE","coordinates":[-106.6458,35.0726],"related_stops":["6458","6312"],"transfer_routes":["3117"],"related_routes":[]
    },"6460":{"name":"Broadway @ Bell","desc":"1215 BROADWAY BLVD SE \u0026 BELL AVE SE","coordinates":[-106.6457,35.0708],"related_stops":["6460","6462","6310"],"transfer_routes":["3117"],"related_routes":[]
    },"6462":{"name":"Broadway @ Trumbull","desc":"1413 BROADWAY BLVD SE","coordinates":[-106.6457,35.0691],"related_stops":["6460","6462","6310"],"transfer_routes":["3117"],"related_routes":[]
    },"6464":{"name":"Trumbull @ William","desc":"211 TRUMBULL AVE SE \u0026 JESUS ST SE","coordinates":[-106.6478,35.0686],"related_stops":["6464"],"transfer_routes":["3117"],"related_routes":[]
    },"6468":{"name":"Williams @ Lily","desc":"1623 WILLIAM ST SE \u0026 LILY AVE SE","coordinates":[-106.649,35.0665],"related_stops":["6468"],"transfer_routes":["3117"],"related_routes":[]
    },"6470":{"name":"Williams @ Ogle","desc":"123 OGLE AVE SE \u0026 WILLIAM ST SE","coordinates":[-106.6493,35.0647],"related_stops":["6470"],"transfer_routes":["3117"],"related_routes":[]
    },"6472":{"name":"Williams @ Thaxton","desc":"2103 WILLIAM ST SE \u0026 THAXTON AVE SE","coordinates":[-106.6499,35.0619],"related_stops":["6472"],"transfer_routes":["3117"],"related_routes":[]
    },"6474":{"name":"Williams @ Hosher","desc":"2227 WILLIAM ST SE \u0026 CLIFTON AVE SE","coordinates":[-106.6502,35.06],"related_stops":["6474"],"transfer_routes":["3117"],"related_routes":[]
    },"6476":{"name":"Williams @ Romana","desc":"2425 WILLIAM ST SE \u0026 ROMANA AVE SE","coordinates":[-106.6512,35.0578],"related_stops":["6476"],"transfer_routes":["3117"],"related_routes":[]
    },"6478":{"name":"William @ Wheeler","desc":"2443 WILLIAM ST SE \u0026 WHEELER AVE SE","coordinates":[-106.652,35.0569],"related_stops":["6478"],"transfer_routes":["3117"],"related_routes":[]
    },"6494":{"name":"San Mateo @ Gibson","desc":"1424 SAN MATEO BLVD SE","coordinates":[-106.5864,35.0591],"related_stops":["2919","2949","2951","6516","6494","7228"],"transfer_routes":["3113","3114"],"related_routes":["3117","3145","3121","3122"]
    },"6516":{"name":"San Mateo @ Eastern","desc":"1411 SAN MATEO BLVD SE","coordinates":[-106.5866,35.0596],"related_stops":["2919","2949","2951","6516","6494","7228"],"transfer_routes":["3113","3114"],"related_routes":["3117","3145","3121","3122"]
    },"6930":{"name":"A.T.C.  (Bay B)","desc":"","coordinates":[-106.6476,35.0835],"related_stops":["4703","6930","4835","4439","4837","4441","4701","6932","4841","4831","4843","4833","4845","6972","4847","4839","4829","9999"],"transfer_routes":["3127","3128"],"related_routes":["3129","3135","3137","3141","3109","3110","3111","3112","3117","3130","3132","3133","3136","3143","3144","3146","3121","3123","3138","3139"]
    },"6932":{"name":"A.T.C.  (Bay A)","desc":"","coordinates":[-106.6477,35.0833],"related_stops":["4703","6930","4835","4439","4837","4441","4701","6932","4841","4831","4843","4833","4845","6972","4847","4839","4829","9999"],"transfer_routes":["3130"],"related_routes":["3129","3135","3137","3141","3109","3110","3111","3112","3117","3127","3128","3132","3133","3136","3143","3144","3146","3121","3123","3138","3139"]
    },"6966":{"name":"2nd @ Marquette","desc":"406 2ND ST NW \u0026 MARQUETTE AVE NW","coordinates":[-106.6485,35.0877],"related_stops":["1575","6966"],"transfer_routes":["3129","3135","3109","3110","3112","3143","3144"],"related_routes":["3137","3111","3117","3130","3142"]
    },"6972":{"name":"A.T.C.  (Bay N)","desc":"","coordinates":[-106.648,35.0827],"related_stops":["4703","6930","4835","4439","4837","4441","4701","6932","4841","4831","4843","4833","4845","6972","4847","4839","4829","9999"],"transfer_routes":["3137","3112","3117","3143"],"related_routes":["3129","3135","3141","3109","3110","3111","3127","3128","3130","3132","3133","3136","3144","3146","3121","3123","3138","3139"]
    },"7022":{"name":"Tijeras @ 2nd","desc":"104 TIJERAS AVE NW","coordinates":[-106.6483,35.0862],"related_stops":["1729","7022"],"transfer_routes":["3111","3117","3130","3142"],"related_routes":["3129","3135","3137","3109","3110","3112","3143","3144"]
    },"7228":{"name":"Gibson @ Madeira","desc":"5207 GIBSON BLVD SE \u0026 MADEIRA DR SE","coordinates":[-106.584,35.0585],"related_stops":["2919","2949","2951","6516","6494","7228"],"transfer_routes":["3117"],"related_routes":["3145","3113","3114","3121","3122"]
    },"7238":{"name":"Lomas @ Yale","desc":"1920 LOMAS BLVD NE","coordinates":[-106.6214,35.0884],"related_stops":["4063","4065","7238","6330","6328","5079","1587","5662","7283"],"transfer_routes":["3129","3110","3111"],"related_routes":["3117","3142"]
    },"7258":{"name":"Girard @ Hyder","desc":"1117 GIRARD BLVD SE \u0026 HYDER AVE SE","coordinates":[-106.6134,35.0682],"related_stops":["7258","7260"],"transfer_routes":["3117"],"related_routes":[]
    },"7260":{"name":"Girard @ Hyder","desc":"1200 GIRARD BLVD SE \u0026 HYDER AVE SE","coordinates":[-106.6133,35.068],"related_stops":["7258","7260"],"transfer_routes":["3117"],"related_routes":[]
    },"7262":{"name":"Girard @ Kathryn","desc":"1500 GIRARD BLVD SE \u0026 KATHRYN AVE SE","coordinates":[-106.6131,35.0657],"related_stops":["7262"],"transfer_routes":["3117"],"related_routes":[]
    },"7283":{"name":"University @ Lomas","desc":"1010 UNIVERSITY BLVD NE \u0026 LOMAS BLVD NE","coordinates":[-106.6251,35.0907],"related_stops":["4063","4065","7238","6330","6328","5079","1587","5662","7283"],"transfer_routes":["3117"],"related_routes":["3129","3110","3111","3142"]
    },"7320":{"name":"Yale @ Ross","desc":"1809 YALE BLVD SE \u0026 ROSS AVE SE","coordinates":[-106.6221,35.0621],"related_stops":["3819","7320"],"transfer_routes":["3117","3130"],"related_routes":[]
    },"7344":{"name":"Louisiana @ Gibson","desc":"1118 LOUISIANA BLVD SE","coordinates":[-106.5687,35.059],"related_stops":["6386","2807","2789","7344","2915","2959","5706","6384"],"transfer_routes":["3116"],"related_routes":["3117","3145"]
    },"7408":{"name":"Redondo @ UNM Engineering Bldg.","desc":"303 REDONDO WEST DR NE","coordinates":[-106.6261,35.0834],"related_stops":["1583","1593","3773","7408","7410","6332"],"transfer_routes":["3130"],"related_routes":["3111","3117","3142"]
    },"7410":{"name":"Redondo @ UNM Engineering Bldg","desc":"302 REDONDO WEST DR NE","coordinates":[-106.626,35.0834],"related_stops":["1583","1593","3773","7408","7410","6332"],"transfer_routes":["3130"],"related_routes":["3111","3117","3142"]
    },"7422":{"name":"University @ Eastern","desc":"2120 UNIVERSITY BLVD SE","coordinates":[-106.631,35.0601],"related_stops":["2933","2935","6428","7422","6352"],"transfer_routes":["3117"],"related_routes":["3145","3121"]
    },"7424":{"name":"University @ UNM Pit / Lobo Stadium","desc":"1713 UNIVERSITY BLVD SE","coordinates":[-106.631,35.0654],"related_stops":["7424","6432"],"transfer_routes":["3117"],"related_routes":[]
    },"7426":{"name":"University @ Basehart","desc":"725 UNIVERSITY BLVD SE \u0026 BASEHART  SE","coordinates":[-106.6298,35.0734],"related_stops":["7426","6436"],"transfer_routes":["3117"],"related_routes":["3142","3121"]
    },"7428":{"name":"University @ Coal","desc":"717 UNIVERSITY BLVD SE \u0026 COAL AVE SE","coordinates":[-106.628,35.0755],"related_stops":["6438","3491","7428","6440","6338","3185"],"transfer_routes":["3117","3121"],"related_routes":["3142","3146"]
    },"7438":{"name":"Gibson @ Carlisle","desc":"3611 GIBSON BLVD SE","coordinates":[-106.603,35.0584],"related_stops":["2927","2941","7438","6400"],"transfer_routes":["3117","3145"],"related_routes":["3121","3122"]
    },"7474":{"name":"Central @ Carlisle","desc":"3601 CENTRAL AVE E \u0026 CARLISLE BLVD SE","coordinates":[-106.604,35.0798],"related_stops":["6414","4475","7474","5752"],"transfer_routes":["3136","3138","3139"],"related_routes":["3117"]
    },"7670":{"name":"San Jose @ Williams","desc":"216 SAN JOSE AVE SE \u0026 TOPEKA ST SE","coordinates":[-106.6509,35.0548],"related_stops":["7670"],"transfer_routes":["3117"],"related_routes":[]
    },"7672":{"name":"San Jose @ Broadway","desc":"404 SAN JOSE AVE SE","coordinates":[-106.6471,35.0548],"related_stops":["7672","6296"],"transfer_routes":["3117"],"related_routes":[]
    },"7676":{"name":"University @ Camino de Salud","desc":"1212 UNIVERSITY BLVD NE \u0026 CAMINO DE SALUD  NE","coordinates":[-106.6264,35.0955],"related_stops":["7676","5748"],"transfer_routes":["3117"],"related_routes":[]
    },"7678":{"name":"Broadway @ Martin Luther King","desc":"407 BROADWAY BLVD NE","coordinates":[-106.6442,35.0868],"related_stops":["1577","1597","7678","6322","3757"],"transfer_routes":["3117"],"related_routes":["3111","3130","3142"]
    },"7686":{"name":"Broadway @ Lomas","desc":"703 BROADWAY BLVD NE","coordinates":[-106.6435,35.0898],"related_stops":["5091","3755","4849","3519","4851","7686","5089"],"transfer_routes":["3117"],"related_routes":["3135","3110"]
    },"9999":{"name":"Alvarado Transportation Center (ATC)","desc":"1ST \u0026 CENTRAL SW","coordinates":[-106.6477,35.0833],"related_stops":["4703","6930","4835","4439","4837","4441","4701","6932","4841","4831","4843","4833","4845","6972","4847","4839","4829","9999"],"transfer_routes":[],"related_routes":["3129","3135","3137","3141","3109","3110","3111","3112","3117","3127","3128","3130","3132","3133","3136","3143","3144","3146","3121","3123","3138","3139"]
    }
  },
  "trip_data": {
    "shapes": {
      "b40ca": {
        "bearing": 86.66,"centroid":[-106.6275,35.0759],
        "bounds": [[-106.6498,35.0548],[0.0,35.0992]
        ],"coordinates":[[-106.64750100005034,35.054822],[-106.64527900004984,35.054778],[-106.64523500004982,35.055134],[-106.64517400004982,35.057157],[-106.64580500005002,35.077053],[-106.6452090000499,35.080705],[-106.64979200005094,35.08129],[-106.64942800005086,35.083249],[-106.64794100005052,35.083046],[-106.6478860000505,35.082983],[-106.64797600005053,35.082536],[-106.6483300000506,35.082564],[-106.6482220000506,35.083078],[-106.64942800005086,35.083249],[-106.64881400005073,35.086461],[-106.64833100005062,35.086262],[-106.64746800005044,35.085569],[-106.64642500005019,35.085216],[-106.64408100004968,35.086305],[-106.64173000004921,35.098983],[-106.63952400004872,35.099175],[-106.63733700004826,35.098997],[-106.63227200004718,35.09785],[-106.6300020000467,35.09795],[-106.62875500004644,35.098254],[-106.62736600004615,35.09899],[-106.626645000046,35.09688],[-106.62650500004595,35.094968],[-106.62537300004571,35.091738],[-106.62525500004568,35.090298],[-106.6253810000457,35.087755],[-106.6259000000458,35.084978],[-106.62655600004592,35.082919],[-106.62753300004611,35.077403],[-106.62755200004611,35.075939],[-106.6304200000467,35.072453],[-106.6308850000468,35.071544],[-106.63088800004678,35.066003],[-106.63102200004681,35.064912],[-106.6315150000469,35.063778],[-106.63175300004696,35.062339],[-106.63171500004694,35.061051],[-106.63087800004675,35.059504],[-106.63079700004674,35.058495],[-106.62201500004493,35.058447],[-106.62199900004495,35.0657],[-106.61865000004427,35.065694],[-106.61714100004397,35.065456],[-106.6131550000432,35.065484],[-106.61338500004322,35.067733],[-106.61329300004326,35.08086],[-106.61316100004323,35.081027],[-106.60451600004156,35.079768],[-106.60450600004151,35.066887],[-106.60448900004151,35.066168],[-106.60427600004147,35.065598],[-106.60430200004146,35.058264],[-106.58706800003829,35.058191],[-106.58647400003818,35.058346],[-106.58534200003798,35.058358],[-106.56992400003533,35.058215],[-106.56993000003534,35.058526]],
        "distances": [0.0,0.2011,0.2413,0.4675,2.6945,3.1074,3.5263,3.7486,3.8856,3.8942,3.9448,3.977,3.8593,3.7486,4.5095,4.5581,4.6688,4.7715,5.0191,6.4536,6.6539,6.8529,7.3284,7.5344,7.6527,7.8022,8.0474,8.2626,8.6384,8.7999,9.0843,9.3987,9.6381,10.2611,10.4253,10.894,11.0049,11.6251,11.7477,11.8821,12.0447,12.1887,12.3782,12.4917,13.2858,14.0979,14.401,14.5408,14.902,15.1542,16.6235,16.6459,17.4408,18.8819,18.9619,19.029,19.8501,21.4091,21.4648,21.5678,22.9621,22.9961]
      },
      "e1656": {
        "bearing": 265.33,"centroid":[-106.6267,35.0752],
        "bounds": [[-106.6524,35.0548],[0.0,35.0992]
        ],"coordinates":[[-106.56991700003535,35.060013],[-106.56993000003534,35.058526],[-106.56991600003535,35.060011],[-106.56877500003515,35.060033],[-106.56876400003515,35.058216],[-106.58534200003798,35.058358],[-106.58647400003818,35.058346],[-106.58706800003829,35.058191],[-106.60430200004146,35.058264],[-106.60427600004147,35.065598],[-106.60448900004151,35.066168],[-106.60450600004151,35.066887],[-106.60451600004156,35.079768],[-106.61316100004323,35.081027],[-106.61329300004326,35.08086],[-106.61338500004322,35.067733],[-106.6131550000432,35.065484],[-106.61714100004397,35.065456],[-106.61865000004427,35.065694],[-106.62199900004495,35.0657],[-106.62201500004493,35.058447],[-106.63079700004674,35.058495],[-106.63087800004675,35.059504],[-106.63171500004694,35.061051],[-106.63175300004696,35.062339],[-106.6315150000469,35.063778],[-106.63102200004681,35.064912],[-106.63088800004678,35.066003],[-106.6308850000468,35.071544],[-106.6304200000467,35.072453],[-106.62755200004611,35.075939],[-106.62753300004611,35.077403],[-106.62655600004592,35.082919],[-106.6259000000458,35.084978],[-106.6253810000457,35.087755],[-106.62525500004568,35.090298],[-106.62537300004571,35.091738],[-106.62650500004595,35.094968],[-106.626645000046,35.09688],[-106.62736600004615,35.09899],[-106.62875500004644,35.098254],[-106.6300020000467,35.09795],[-106.63227200004718,35.09785],[-106.63733700004826,35.098997],[-106.63952400004872,35.099175],[-106.64173000004921,35.098983],[-106.64408100004968,35.086305],[-106.64578300005005,35.086723],[-106.64789600005054,35.087734],[-106.64838900005063,35.087862],[-106.64854700005067,35.087896],[-106.64942800005086,35.083249],[-106.6482220000506,35.083078],[-106.64794100005052,35.083046],[-106.64770600005048,35.083823],[-106.64746300005042,35.083822],[-106.64764400005045,35.0825],[-106.6483300000506,35.082564],[-106.6482210000506,35.083076],[-106.64813700005058,35.083582],[-106.64806100005055,35.084086],[-106.64461800004979,35.083644],[-106.64580100005003,35.077519],[-106.64552700004994,35.068623],[-106.64852000005061,35.068542],[-106.65036400005098,35.058775],[-106.65158200005126,35.056982],[-106.65205400005136,35.056794],[-106.65244600005144,35.054926],[-106.64750100005034,35.054822]],
        "distances": [0.0,0.167,0.167,0.27,0.473,1.9723,2.0753,2.1309,3.69,4.5111,4.5781,4.6582,6.0993,6.8941,6.9166,8.3859,8.6381,8.9992,9.1391,9.4421,10.2543,11.0484,11.1619,11.3513,11.4954,11.658,11.7924,11.915,12.5352,12.6461,13.1148,13.279,13.902,14.1414,14.4558,14.7401,14.9017,15.2775,15.4926,15.7379,15.8874,16.0057,16.2117,16.6871,16.8862,17.0865,18.5209,18.6817,18.9051,18.9513,18.9668,19.4927,19.6033,19.6296,19.7237,19.7458,19.899,19.9614,20.0201,20.0767,20.134,20.45,21.1441,22.1396,22.4108,23.5167,23.7459,23.7938,24.006,24.4532]
      }
    },
    "stop_lists": {
      "f57ca": ["6384","6386","2915","6388","2917","6392","6394","7228","2919","2921","6398","2923","7438","6400","6402","6404","6406","6408","6410","6412","6414","5690","5692","3094","6418","7258","6422","6424","5652","7320","3795","5670","5664","7422","6428","6430","6432","5646","6436","6438","6440","6442","6444","6446","1583","1585","3849","7283","7676","3741","3743","3745","3747","3749","3751","7686","7678","1575","1729","4833","6448","6450","6452","6454","6456","6458","6460","6462","6464","6468","6470","6472","6474","6476","6478","7670","7672"],
      "a171d": ["7672","6296","6300","6302","6304","6306","6308","6310","6312","6314","6316","6318","6972","7022","6322","3519","3521","3523","5816","3529","3531","6324","5748","6326","6328","6330","4067","6332","6334","6336","6338","7428","7426","6344","6346","7424","6350","6352","2935","3817","3819","3821","6354","6356","7262","7260","6362","6364","6366","5694","4471","5752","6368","6370","6372","6374","6376","6378","6380","2941","2943","2945","6382","2947","2949","2951","2953","2955","2957","2801","2803","6384"]
    },
    "stop_times": {
      "cacfb": [0,21,46,82,109,134,149,164,180,211,232,271,339,360,403,440,483,560,625,677,718,770,806,868,1034,1083,1214,1260,1291,1329,1382,1397,1437,1535,1561,1607,1644,1705,1764,1818,1838,1877,1901,1920,1976,2020,2055,2100,2181,2245,2348,2400,2449,2496,2534,2590,2637,2718,2754,2820,3010,3043,3107,3158,3219,3270,3316,3360,3406,3459,3494,3549,3587,3634,3658,3721,3780],
      "60cb0": [0,26,82,118,137,173,205,240,284,347,384,418,600,693,769,832,883,912,960,1006,1058,1171,1231,1252,1301,1320,1360,1410,1440,1480,1503,1536,1575,1620,1658,1700,1723,1776,1818,1932,1973,2004,2040,2074,2153,2190,2231,2257,2386,2419,2476,2530,2576,2610,2669,2731,2777,2800,2834,2880,2899,2962,3003,3018,3040,3060,3095,3114,3141,3165,3187,3240],
      "ff0d7": [0,21,46,82,109,134,149,164,180,211,232,271,339,360,403,440,483,560,625,677,718,770,806,868,1034,1083,1214,1260,1293,1335,1393,1409,1452,1559,1588,1638,1678,1745,1809,1868,1890,1933,1959,1980,2036,2080,2115,2160,2241,2305,2408,2460,2509,2556,2594,2650,2697,2778,2814,2880,3091,3128,3199,3256,3323,3379,3430,3480,3526,3579,3614,3669,3707,3754,3778,3841,3900],
      "4bede": [0,26,82,118,137,173,205,240,284,347,384,418,600,693,769,832,883,912,960,1006,1058,1171,1231,1252,1301,1320,1360,1410,1440,1476,1496,1525,1560,1601,1635,1673,1693,1741,1778,1880,1916,1944,1980,2014,2093,2130,2171,2197,2326,2359,2416,2470,2516,2550,2609,2671,2717,2740,2774,2820,2839,2902,2943,2958,2980,3000,3035,3054,3081,3105,3127,3180],
      "12aec": [0,26,82,118,137,173,205,240,284,347,384,418,600,693,769,832,883,912,960,1006,1058,1171,1231,1252,1301,1320,1360,1410,1440,1480,1503,1536,1575,1620,1658,1700,1723,1776,1818,1932,1973,2004,2040,2077,2161,2201,2245,2273,2411,2447,2508,2566,2616,2653,2716,2782,2831,2855,2892,2940,2959,3022,3063,3078,3100,3120,3155,3174,3201,3225,3247,3300],
      "28972": [0,26,82,118,137,173,205,240,284,347,384,418,600,709,798,871,930,964,1020,1074,1134,1266,1336,1361,1418,1440,1480,1530,1560,1604,1629,1665,1708,1758,1800,1846,1871,1929,1975,2100,2145,2179,2220,2262,2357,2402,2452,2484,2640,2680,2749,2815,2872,2913,2985,3060,3116,3144,3186,3240,3259,3322,3363,3378,3400,3420,3455,3474,3501,3525,3547,3600],
      "25feb": [0,21,46,82,109,134,149,164,180,201,215,241,286,300,340,375,415,487,548,597,636,685,719,777,932,978,1100,1140,1168,1203,1251,1264,1300,1389,1413,1455,1489,1545,1599,1648,1666,1702,1724,1740,1796,1840,1875,1920,2001,2065,2168,2220,2269,2316,2354,2410,2457,2538,2574,2640,2851,2888,2959,3016,3083,3139,3190,3240,3286,3339,3374,3429,3467,3514,3538,3601,3660],
      "8086f": [0,26,82,118,137,173,205,240,284,347,384,418,600,701,784,852,907,939,991,1041,1097,1219,1284,1307,1360,1380,1420,1470,1500,1540,1563,1596,1635,1680,1718,1760,1783,1836,1878,1992,2033,2064,2100,2142,2237,2282,2332,2364,2520,2560,2629,2695,2752,2793,2865,2940,2996,3024,3066,3120,3139,3202,3243,3258,3280,3300,3335,3354,3381,3405,3427,3480],
      "a0f53": [0,21,46,82,109,134,149,164,180,201,215,241,286,300,340,375,415,487,548,597,636,685,719,777,932,978,1100,1140,1168,1203,1251,1264,1300,1389,1413,1455,1489,1545,1599,1648,1666,1702,1724,1740,1796,1840,1875,1920,1995,2054,2149,2196,2241,2284,2319,2370,2413,2487,2520,2580,2770,2803,2867,2918,2979,3030,3076,3120,3166,3219,3254,3309,3347,3394,3418,3481,3540],
      "5d994": [0,21,46,82,109,134,149,164,180,201,215,241,286,300,340,375,415,487,548,597,636,685,719,777,932,978,1100,1140,1168,1203,1251,1264,1300,1389,1413,1455,1489,1545,1599,1648,1666,1702,1724,1740,1796,1840,1875,1920,1995,2054,2149,2196,2241,2284,2319,2370,2413,2487,2520,2580,2749,2778,2835,2880,2934,2979,3020,3060,3106,3159,3194,3249,3287,3334,3358,3421,3480],
      "ca59d": [0,26,82,118,137,173,205,240,284,347,384,418,600,693,769,832,883,912,960,1006,1058,1171,1231,1252,1301,1320,1360,1410,1440,1484,1509,1545,1588,1638,1680,1726,1751,1809,1855,1980,2025,2059,2100,2137,2221,2261,2305,2333,2471,2507,2568,2626,2676,2713,2776,2842,2891,2915,2952,3000,3019,3082,3123,3138,3160,3180,3215,3234,3261,3285,3307,3360],
      "99b78": [0,26,82,118,137,173,205,240,284,347,384,418,600,701,784,852,907,939,991,1041,1097,1219,1284,1307,1360,1380,1420,1470,1500,1540,1563,1596,1635,1680,1718,1760,1783,1836,1878,1992,2033,2064,2100,2134,2213,2250,2291,2317,2446,2479,2536,2590,2636,2670,2729,2791,2837,2860,2894,2940,2959,3022,3063,3078,3100,3120,3155,3174,3201,3225,3247,3300],
      "cbb40": [0,21,46,82,109,134,149,164,180,211,232,271,339,360,403,440,483,560,625,677,718,770,806,868,1034,1083,1214,1260,1288,1323,1371,1384,1420,1509,1533,1575,1609,1665,1719,1768,1786,1822,1844,1860,1916,1960,1995,2040,2115,2174,2269,2316,2361,2404,2439,2490,2533,2607,2640,2700,2890,2923,2987,3038,3099,3150,3196,3240,3286,3339,3374,3429,3467,3514,3538,3601,3660]
    },
    "stop_distances": {
      "db05a": [0.0,0.237,0.519,0.919,1.2241,1.5022,1.6763,1.8453,1.9923,2.3039,2.5109,2.8939,3.568,3.754,4.028,4.265,4.5345,5.0172,5.4293,5.7573,6.0183,6.3488,6.5777,6.9696,8.0087,8.3198,9.1401,9.3741,9.5812,9.8382,10.1933,10.2933,10.5603,11.2176,11.3944,11.7025,11.952,12.363,12.7587,13.1218,13.257,13.5223,13.6839,13.7638,14.0844,14.3355,14.5339,14.7812,15.3339,15.7722,16.4718,16.8231,17.1573,17.4811,17.7389,18.1186,18.4363,18.9882,19.2356,19.6395,20.5001,20.652,20.9423,21.1752,21.4513,21.6824,21.8925,22.0765,22.3387,22.638,22.8401,23.1537,23.3733,23.6439,23.781,24.1371,24.4462],
      "4ee40": [0.0,0.2043,0.6476,0.9297,1.0827,1.3669,1.624,1.8741,2.1242,2.4774,2.6855,2.88,3.8917,4.5303,5.0548,5.4855,5.8341,6.0364,6.3691,6.6861,7.043,7.8171,8.2285,8.3771,8.7119,8.81,9.126,9.5189,9.7444,10.0406,10.2091,10.4504,10.7367,11.0711,11.3521,11.6595,11.8274,12.2166,12.5237,13.3539,13.6529,13.8799,14.113,14.351,14.893,15.1522,15.4384,15.6234,16.5085,16.7391,17.134,17.5088,17.8308,18.0678,18.4749,18.9029,19.221,19.381,19.6201,19.8741,20.0551,20.6561,21.0471,21.1981,21.4069,21.5748,21.8488,21.9958,22.2109,22.396,22.571,22.9591]
    },
    "dwell_times": {
      "a2a5b": [0,0,0,0,0,0,0,0,0,0,0,0,0,0,0,0,0,0,0,0,0,0,0,0,0,0,0,0,0,0,0,0,0,0,0,0,0,0,0,0,0,0,0,0,0,0,0,0,0,0,0,0,0,0,0,0,0,0,0,0,0,0,0,0,0,0,0,0,0,0,0,0,0,0,0,0,0],
      "45561": [0,0,0,0,0,0,0,0,0,0,0,0,0,0,0,0,0,0,0,0,0,0,0,0,0,0,0,0,0,0,0,0,0,0,0,0,0,0,0,0,0,0,0,0,0,0,0,0,0,0,0,0,0,0,0,0,0,0,0,0,0,0,0,0,0,0,0,0,0,0,0,0]
    },
    "trips": {
      "1": [
        {"id":"404251","direction":0,"start_time":23160,"stops_key":"f57ca","stop_distances":"db05a","stop_times":"5d994","stop_dwells":"a2a5b","shape_key":"e1656"},
        {"id":"404250","direction":0,"start_time":25740,"stops_key":"f57ca","stop_distances":"db05a","stop_times":"cbb40","stop_dwells":"a2a5b","shape_key":"e1656"},
        {"id":"404249","direction":0,"start_time":28620,"stops_key":"f57ca","stop_distances":"db05a","stop_times":"cbb40","stop_dwells":"a2a5b","shape_key":"e1656"},
        {"id":"404248","direction":0,"start_time":31620,"stops_key":"f57ca","stop_distances":"db05a","stop_times":"cbb40","stop_dwells":"a2a5b","shape_key":"e1656"},
        {"id":"404247","direction":0,"start_time":34500,"stops_key":"f57ca","stop_distances":"db05a","stop_times":"cbb40","stop_dwells":"a2a5b","shape_key":"e1656"},
        {"id":"404246","direction":0,"start_time":37380,"stops_key":"f57ca","stop_distances":"db05a","stop_times":"cacfb","stop_dwells":"a2a5b","shape_key":"e1656"},
        {"id":"404245","direction":0,"start_time":40320,"stops_key":"f57ca","stop_distances":"db05a","stop_times":"cacfb","stop_dwells":"a2a5b","shape_key":"e1656"},
        {"id":"404244","direction":0,"start_time":43020,"stops_key":"f57ca","stop_distances":"db05a","stop_times":"cacfb","stop_dwells":"a2a5b","shape_key":"e1656"},
        {"id":"404243","direction":0,"start_time":45780,"stops_key":"f57ca","stop_distances":"db05a","stop_times":"ff0d7","stop_dwells":"a2a5b","shape_key":"e1656"},
        {"id":"404242","direction":0,"start_time":49020,"stops_key":"f57ca","stop_distances":"db05a","stop_times":"ff0d7","stop_dwells":"a2a5b","shape_key":"e1656"},
        {"id":"404241","direction":0,"start_time":51840,"stops_key":"f57ca","stop_distances":"db05a","stop_times":"ff0d7","stop_dwells":"a2a5b","shape_key":"e1656"},
        {"id":"404240","direction":0,"start_time":54840,"stops_key":"f57ca","stop_distances":"db05a","stop_times":"ff0d7","stop_dwells":"a2a5b","shape_key":"e1656"},
        {"id":"404239","direction":0,"start_time":57780,"stops_key":"f57ca","stop_distances":"db05a","stop_times":"ff0d7","stop_dwells":"a2a5b","shape_key":"e1656"},
        {"id":"404238","direction":0,"start_time":60600,"stops_key":"f57ca","stop_distances":"db05a","stop_times":"cacfb","stop_dwells":"a2a5b","shape_key":"e1656"},
        {"id":"404237","direction":0,"start_time":63660,"stops_key":"f57ca","stop_distances":"db05a","stop_times":"cacfb","stop_dwells":"a2a5b","shape_key":"e1656"},
        {"id":"404267","direction":1,"start_time":21600,"stops_key":"a171d","stop_distances":"4ee40","stop_times":"60cb0","stop_dwells":"45561","shape_key":"b40ca"},
        {"id":"404266","direction":1,"start_time":24300,"stops_key":"a171d","stop_distances":"4ee40","stop_times":"60cb0","stop_dwells":"45561","shape_key":"b40ca"},
        {"id":"404265","direction":1,"start_time":27060,"stops_key":"a171d","stop_distances":"4ee40","stop_times":"99b78","stop_dwells":"45561","shape_key":"b40ca"},
        {"id":"404264","direction":1,"start_time":29760,"stops_key":"a171d","stop_distances":"4ee40","stop_times":"99b78","stop_dwells":"45561","shape_key":"b40ca"},
        {"id":"404263","direction":1,"start_time":32760,"stops_key":"a171d","stop_distances":"4ee40","stop_times":"99b78","stop_dwells":"45561","shape_key":"b40ca"},
        {"id":"404262","direction":1,"start_time":35700,"stops_key":"a171d","stop_distances":"4ee40","stop_times":"99b78","stop_dwells":"45561","shape_key":"b40ca"},
        {"id":"404261","direction":1,"start_time":38760,"stops_key":"a171d","stop_distances":"4ee40","stop_times":"99b78","stop_dwells":"45561","shape_key":"b40ca"},
        {"id":"404260","direction":1,"start_time":41580,"stops_key":"a171d","stop_distances":"4ee40","stop_times":"8086f","stop_dwells":"45561","shape_key":"b40ca"},
        {"id":"404259","direction":1,"start_time":44460,"stops_key":"a171d","stop_distances":"4ee40","stop_times":"8086f","stop_dwells":"45561","shape_key":"b40ca"},
        {"id":"404258","direction":1,"start_time":47280,"stops_key":"a171d","stop_distances":"4ee40","stop_times":"8086f","stop_dwells":"45561","shape_key":"b40ca"},
        {"id":"404257","direction":1,"start_time":50220,"stops_key":"a171d","stop_distances":"4ee40","stop_times":"28972","stop_dwells":"45561","shape_key":"b40ca"},
        {"id":"404256","direction":1,"start_time":53160,"stops_key":"a171d","stop_distances":"4ee40","stop_times":"28972","stop_dwells":"45561","shape_key":"b40ca"},
        {"id":"404255","direction":1,"start_time":56160,"stops_key":"a171d","stop_distances":"4ee40","stop_times":"28972","stop_dwells":"45561","shape_key":"b40ca"},
        {"id":"404254","direction":1,"start_time":58980,"stops_key":"a171d","stop_distances":"4ee40","stop_times":"28972","stop_dwells":"45561","shape_key":"b40ca"},
        {"id":"404253","direction":1,"start_time":61920,"stops_key":"a171d","stop_distances":"4ee40","stop_times":"28972","stop_dwells":"45561","shape_key":"b40ca"},
        {"id":"404252","direction":1,"start_time":64800,"stops_key":"a171d","stop_distances":"4ee40","stop_times":"ca59d","stop_dwells":"45561","shape_key":"b40ca"}
      ],
      "2": [
        {"id":"404208","direction":0,"start_time":23220,"stops_key":"f57ca","stop_distances":"db05a","stop_times":"25feb","stop_dwells":"a2a5b","shape_key":"e1656"},
        {"id":"404207","direction":0,"start_time":27120,"stops_key":"f57ca","stop_distances":"db05a","stop_times":"25feb","stop_dwells":"a2a5b","shape_key":"e1656"},
        {"id":"404206","direction":0,"start_time":31020,"stops_key":"f57ca","stop_distances":"db05a","stop_times":"25feb","stop_dwells":"a2a5b","shape_key":"e1656"},
        {"id":"404205","direction":0,"start_time":34980,"stops_key":"f57ca","stop_distances":"db05a","stop_times":"25feb","stop_dwells":"a2a5b","shape_key":"e1656"},
        {"id":"404204","direction":0,"start_time":38880,"stops_key":"f57ca","stop_distances":"db05a","stop_times":"25feb","stop_dwells":"a2a5b","shape_key":"e1656"},
        {"id":"404203","direction":0,"start_time":42120,"stops_key":"f57ca","stop_distances":"db05a","stop_times":"25feb","stop_dwells":"a2a5b","shape_key":"e1656"},
        {"id":"404202","direction":0,"start_time":44880,"stops_key":"f57ca","stop_distances":"db05a","stop_times":"25feb","stop_dwells":"a2a5b","shape_key":"e1656"},
        {"id":"404201","direction":0,"start_time":47580,"stops_key":"f57ca","stop_distances":"db05a","stop_times":"25feb","stop_dwells":"a2a5b","shape_key":"e1656"},
        {"id":"404200","direction":0,"start_time":50280,"stops_key":"f57ca","stop_distances":"db05a","stop_times":"25feb","stop_dwells":"a2a5b","shape_key":"e1656"},
        {"id":"404199","direction":0,"start_time":52980,"stops_key":"f57ca","stop_distances":"db05a","stop_times":"25feb","stop_dwells":"a2a5b","shape_key":"e1656"},
        {"id":"404198","direction":0,"start_time":55680,"stops_key":"f57ca","stop_distances":"db05a","stop_times":"25feb","stop_dwells":"a2a5b","shape_key":"e1656"},
        {"id":"404197","direction":0,"start_time":58380,"stops_key":"f57ca","stop_distances":"db05a","stop_times":"25feb","stop_dwells":"a2a5b","shape_key":"e1656"},
        {"id":"404196","direction":0,"start_time":61080,"stops_key":"f57ca","stop_distances":"db05a","stop_times":"25feb","stop_dwells":"a2a5b","shape_key":"e1656"},
        {"id":"404222","direction":1,"start_time":22920,"stops_key":"a171d","stop_distances":"4ee40","stop_times":"60cb0","stop_dwells":"45561","shape_key":"b40ca"},
        {"id":"404221","direction":1,"start_time":27120,"stops_key":"a171d","stop_distances":"4ee40","stop_times":"60cb0","stop_dwells":"45561","shape_key":"b40ca"},
        {"id":"404220","direction":1,"start_time":31020,"stops_key":"a171d","stop_distances":"4ee40","stop_times":"60cb0","stop_dwells":"45561","shape_key":"b40ca"},
        {"id":"404219","direction":1,"start_time":34920,"stops_key":"a171d","stop_distances":"4ee40","stop_times":"60cb0","stop_dwells":"45561","shape_key":"b40ca"},
        {"id":"404218","direction":1,"start_time":37800,"stops_key":"a171d","stop_distances":"4ee40","stop_times":"60cb0","stop_dwells":"45561","shape_key":"b40ca"},
        {"id":"404217","direction":1,"start_time":40500,"stops_key":"a171d","stop_distances":"4ee40","stop_times":"60cb0","stop_dwells":"45561","shape_key":"b40ca"},
        {"id":"404216","direction":1,"start_time":43200,"stops_key":"a171d","stop_distances":"4ee40","stop_times":"12aec","stop_dwells":"45561","shape_key":"b40ca"},
        {"id":"404215","direction":1,"start_time":46020,"stops_key":"a171d","stop_distances":"4ee40","stop_times":"12aec","stop_dwells":"45561","shape_key":"b40ca"},
        {"id":"404214","direction":1,"start_time":48780,"stops_key":"a171d","stop_distances":"4ee40","stop_times":"12aec","stop_dwells":"45561","shape_key":"b40ca"},
        {"id":"404213","direction":1,"start_time":51480,"stops_key":"a171d","stop_distances":"4ee40","stop_times":"12aec","stop_dwells":"45561","shape_key":"b40ca"},
        {"id":"404212","direction":1,"start_time":54180,"stops_key":"a171d","stop_distances":"4ee40","stop_times":"12aec","stop_dwells":"45561","shape_key":"b40ca"},
        {"id":"404211","direction":1,"start_time":56880,"stops_key":"a171d","stop_distances":"4ee40","stop_times":"12aec","stop_dwells":"45561","shape_key":"b40ca"},
        {"id":"404210","direction":1,"start_time":59580,"stops_key":"a171d","stop_distances":"4ee40","stop_times":"12aec","stop_dwells":"45561","shape_key":"b40ca"},
        {"id":"404209","direction":1,"start_time":62280,"stops_key":"a171d","stop_distances":"4ee40","stop_times":"12aec","stop_dwells":"45561","shape_key":"b40ca"}
      ],
      "3": [
        {"id":"404229","direction":0,"start_time":32520,"stops_key":"f57ca","stop_distances":"db05a","stop_times":"a0f53","stop_dwells":"a2a5b","shape_key":"e1656"},
        {"id":"404228","direction":0,"start_time":36420,"stops_key":"f57ca","stop_distances":"db05a","stop_times":"a0f53","stop_dwells":"a2a5b","shape_key":"e1656"},
        {"id":"404227","direction":0,"start_time":40320,"stops_key":"f57ca","stop_distances":"db05a","stop_times":"a0f53","stop_dwells":"a2a5b","shape_key":"e1656"},
        {"id":"404226","direction":0,"start_time":44220,"stops_key":"f57ca","stop_distances":"db05a","stop_times":"a0f53","stop_dwells":"a2a5b","shape_key":"e1656"},
        {"id":"404225","direction":0,"start_time":48120,"stops_key":"f57ca","stop_distances":"db05a","stop_times":"a0f53","stop_dwells":"a2a5b","shape_key":"e1656"},
        {"id":"404224","direction":0,"start_time":52020,"stops_key":"f57ca","stop_distances":"db05a","stop_times":"a0f53","stop_dwells":"a2a5b","shape_key":"e1656"},
        {"id":"404223","direction":0,"start_time":56040,"stops_key":"f57ca","stop_distances":"db05a","stop_times":"a0f53","stop_dwells":"a2a5b","shape_key":"e1656"},
        {"id":"404236","direction":1,"start_time":32100,"stops_key":"a171d","stop_distances":"4ee40","stop_times":"4bede","stop_dwells":"45561","shape_key":"b40ca"},
        {"id":"404235","direction":1,"start_time":36300,"stops_key":"a171d","stop_distances":"4ee40","stop_times":"4bede","stop_dwells":"45561","shape_key":"b40ca"},
        {"id":"404234","direction":1,"start_time":40200,"stops_key":"a171d","stop_distances":"4ee40","stop_times":"4bede","stop_dwells":"45561","shape_key":"b40ca"},
        {"id":"404233","direction":1,"start_time":44100,"stops_key":"a171d","stop_distances":"4ee40","stop_times":"12aec","stop_dwells":"45561","shape_key":"b40ca"},
        {"id":"404232","direction":1,"start_time":48000,"stops_key":"a171d","stop_distances":"4ee40","stop_times":"12aec","stop_dwells":"45561","shape_key":"b40ca"},
        {"id":"404231","direction":1,"start_time":51900,"stops_key":"a171d","stop_distances":"4ee40","stop_times":"12aec","stop_dwells":"45561","shape_key":"b40ca"},
        {"id":"404230","direction":1,"start_time":55800,"stops_key":"a171d","stop_distances":"4ee40","stop_times":"12aec","stop_dwells":"45561","shape_key":"b40ca"}
      ]
    }
  }
}