{
  "id": "3121",
  "short_name": "217",
  "long_name": "Downtown-KAFB Ltd.",
  "color": "FDDC00",
  "text_color": "000000",
  "schedules": {
    "1": {
      "start_date": "20180818",
      "end_date": "20181221",
      "days_mask_mon_sun": 124,"added_days":[],"removed_days":["20180903","20181122","20181123"
      ]
    }
  },
  "related_route_data": {"3129":{"short_name":"5","long_name":"Montgomery/Carlisle","color":"FF4E21","text_color":"000000"
    },"3135":{"short_name":"6","long_name":"Indian School Commuter","color":"E171E1","text_color":"000000"
    },"3137":{"short_name":"7","long_name":"Candelaria Commuter","color":"FF7F54","text_color":"000000"
    },"3141":{"short_name":"8","long_name":"Menaul","color":"7B097B","text_color":"FFFFFF"
    },"3109":{"short_name":"10","long_name":"North Fourth Street","color":"C30000","text_color":"FFFFFF"
    },"3110":{"short_name":"11","long_name":"Lomas","color":"800080","text_color":"FFFFFF"
    },"3111":{"short_name":"12","long_name":"Constitution Commuter","color":"B7FF00","text_color":"000000"
    },"3112":{"short_name":"13","long_name":"Comanche Commuter","color":"006267","text_color":"FFFFFF"
    },"3117":{"short_name":"16","long_name":"University/Gibson/Broadway","color":"C01D8C","text_color":"FFFFFF"
    },"3125":{"short_name":"31","long_name":"Wyoming","color":"852300","text_color":"FFFFFF"
    },"3127":{"short_name":"36","long_name":"12th Street/Rio Grande","color":"800000","text_color":"FFFFFF"
    },"3128":{"short_name":"37","long_name":"Rio Grande/12th Street","color":"800000","text_color":"FFFFFF"
    },"3130":{"short_name":"50","long_name":"Airport/Downtown","color":"71220F","text_color":"FFFFFF"
    },"3132":{"short_name":"53","long_name":"Isleta","color":"2390CF","text_color":"000000"
    },"3133":{"short_name":"54","long_name":"Bridge/Westgate","color":"006097","text_color":"FFFFFF"
    },"3136":{"short_name":"66","long_name":"Central Avenue","color":"00DEC8","text_color":"000000"
    },"3142":{"short_name":"92","long_name":"Taylor Ranch Express","color":"D43815","text_color":"FFFFFF"
    },"3143":{"short_name":"93","long_name":"Academy Commuter","color":"9494FF","text_color":"000000"
    },"3144":{"short_name":"94","long_name":"Unser Commuter","color":"3988FF","text_color":"000000"
    },"3145":{"short_name":"96","long_name":"Crosstown Commuter","color":"F3F400","text_color":"000000"
    },"3146":{"short_name":"97","long_name":"Zuni Express","color":"6600FF","text_color":"FFFFFF"
    },"3113":{"short_name":"140","long_name":"San Mateo / CNM Work Force","color":"420080","text_color":"FFFFFF"
    },"3114":{"short_name":"141","long_name":"San Mateo","color":"7E0080","text_color":"FFFFFF"
    },"3116":{"short_name":"157","long_name":"Cottonwood/Montano/UTC","color":"008047","text_color":"FFFFFF"
    },"3121":{"short_name":"217","long_name":"Downtown-KAFB Ltd.","color":"FDDC00","text_color":"000000"
    },"3122":{"short_name":"222","long_name":"Rio Bravo/ Rail Runner/ KAFB","color":"804A80","text_color":"FFFFFF"
    },"3123":{"short_name":"250","long_name":"Airport/Downtown Express","color":"F34C00","text_color":"000000"
    },"3138":{"short_name":"766","long_name":"Red Line Rapid Ride","color":"EC0000","text_color":"FFFFFF"
    },"3139":{"short_name":"777","long_name":"Green Line Rapid Ride","color":"00FF00","text_color":"000000"
    }
  },
  "stops": {"2885":{"name":"G Street @ Texas (D.O.E. Bldg.)","desc":"UNKNOWN","coordinates":[-106.5578,35.0539],"related_stops":["2895","2885"],"transfer_routes":["3145","3116","3121","3122"],"related_routes":[]
    },"2887":{"name":"G Street @ 1st","desc":"G AVE SE \u0026 1ST ST SE","coordinates":[-106.5541,35.0539],"related_stops":["2887"],"transfer_routes":["3145","3116","3121","3122"],"related_routes":[]
    },"2889":{"name":"5th @ G Street (Bldg. 800)","desc":"UNKNOWN \u0026 G AVE SE","coordinates":[-106.5496,35.0536],"related_stops":["2889"],"transfer_routes":["3125","3145","3116","3121","3122"],"related_routes":[]
    },"2891":{"name":"H Street @ Wyoming","desc":"H AVE SE","coordinates":[-106.5517,35.0526],"related_stops":["2897","2911","2909","2899","2891"],"transfer_routes":["3145","3116","3121","3122"],"related_routes":["3125"]
    },"2893":{"name":"H Street @ Texas","desc":"H AVE SE","coordinates":[-106.555,35.0526],"related_stops":["2893"],"transfer_routes":["3145","3116","3121","3122"],"related_routes":[]
    },"2895":{"name":"G Street @ Texas (D.O.E. Bldg.)","desc":"UNKNOWN","coordinates":[-106.5577,35.054],"related_stops":["2895","2885"],"transfer_routes":["3145","3116","3121","3122"],"related_routes":[]
    },"2897":{"name":"Wyoming @ H","desc":"UNKNOWN \u0026 WYOMING BLVD SE","coordinates":[-106.5507,35.0521],"related_stops":["2897","2911","2909","2899","2891"],"transfer_routes":["3125","3145"],"related_routes":["3116","3121","3122"]
    },"2899":{"name":"Wyoming @ H","desc":"WYOMING BLVD SE","coordinates":[-106.5507,35.0506],"related_stops":["2897","2911","2909","2899","2891"],"transfer_routes":["3125","3145"],"related_routes":["3116","3121","3122"]
    },"2909":{"name":"Wyoming @ K (KAFB Comm. Bldg.)","desc":"WYOMING BLVD SE \u0026 UNKNOWN","coordinates":[-106.5505,35.0505],"related_stops":["2897","2911","2909","2899","2891"],"transfer_routes":["3125","3145"],"related_routes":["3116","3121","3122"]
    },"2911":{"name":"Wyoming @ H","desc":"WYOMING BLVD SE \u0026 H AVE SE","coordinates":[-106.5505,35.0524],"related_stops":["2897","2911","2909","2899","2891"],"transfer_routes":["3125","3145"],"related_routes":["3116","3121","3122"]
    },"2919":{"name":"Gibson @ San Mateo","desc":"5009 GIBSON BLVD SE \u0026 ORTIZ DR SE","coordinates":[-106.5856,35.0585],"related_stops":["2919","2949","2951","6516","6494","7228"],"transfer_routes":["3117","3145","3121","3122"],"related_routes":["3113","3114"]
    },"2927":{"name":"Gibson @ Carlisle","desc":"3543 GIBSON BLVD SE \u0026 CARLISLE BLVD SE","coordinates":[-106.6047,35.0584],"related_stops":["2927","2941","7438","6400"],"transfer_routes":["3145","3121","3122"],"related_routes":["3117"]
    },"2929":{"name":"Gibson @ Girard","desc":"2807 GIBSON BLVD SE \u0026 GIRARD BLVD SE","coordinates":[-106.6137,35.0586],"related_stops":["2939","7174","7586","2929"],"transfer_routes":["3145","3121"],"related_routes":["3122"]
    },"2933":{"name":"Gibson @ University","desc":"GIBSON \u0026 UNIVERSITY","coordinates":[-106.6329,35.0589],"related_stops":["2933","2935","6428","7422","6352"],"transfer_routes":["3145"],"related_routes":["3117","3121"]
    },"2935":{"name":"Gibson @ University","desc":"1606 GIBSON BLVD SE","coordinates":[-106.63,35.0583],"related_stops":["2933","2935","6428","7422","6352"],"transfer_routes":["3117","3145"],"related_routes":["3121"]
    },"2937":{"name":"Gibson @ Yale","desc":"GIBSON \u0026 YALE","coordinates":[-106.6216,35.0583],"related_stops":["3797","2937","3817","5670","3795","3815"],"transfer_routes":["3145","3121"],"related_routes":["3117","3130"]
    },"2939":{"name":"Gibson @ Girard","desc":"2990 GIBSON BLVD SE","coordinates":[-106.6125,35.0582],"related_stops":["2939","7174","7586","2929"],"transfer_routes":["3145","3121","3122"],"related_routes":[]
    },"2941":{"name":"Gibson @ Carlisle","desc":"3606 GIBSON BLVD SE","coordinates":[-106.6036,35.0581],"related_stops":["2927","2941","7438","6400"],"transfer_routes":["3117","3145","3121","3122"],"related_routes":[]
    },"2949":{"name":"Gibson @ San Mateo","desc":"GIBSON \u0026 SAN MATEO","coordinates":[-106.5866,35.0582],"related_stops":["2919","2949","2951","6516","6494","7228"],"transfer_routes":["3117","3145"],"related_routes":["3113","3114","3121","3122"]
    },"2951":{"name":"Gibson @ San Mateo","desc":"5110 GIBSON BLVD SE \u0026 ORTIZ DR SE","coordinates":[-106.5849,35.0582],"related_stops":["2919","2949","2951","6516","6494","7228"],"transfer_routes":["3117","3121","3122"],"related_routes":["3145","3113","3114"]
    },"3185":{"name":"Coal @ Hazeldine","desc":"COAL AVE SE \u0026 HAZELDINE AVE SE","coordinates":[-106.6281,35.0764],"related_stops":["6438","3491","7428","6440","6338","3185"],"transfer_routes":["3146"],"related_routes":["3117","3142","3121"]
    },"3491":{"name":"Coal @ University","desc":"1818 COAL AVE SE","coordinates":[-106.6258,35.0749],"related_stops":["6438","3491","7428","6440","6338","3185"],"transfer_routes":["3146"],"related_routes":["3117","3142","3121"]
    },"3795":{"name":"Yale @ Gibson","desc":"2025 YALE BLVD SE","coordinates":[-106.6222,35.0589],"related_stops":["3797","2937","3817","5670","3795","3815"],"transfer_routes":["3117","3130"],"related_routes":["3145","3121"]
    },"3797":{"name":"Yale @ Gibson","desc":"2215 YALE BLVD SE \u0026 MILES RD SE","coordinates":[-106.6222,35.0571],"related_stops":["3797","2937","3817","5670","3795","3815"],"transfer_routes":["3130"],"related_routes":["3117","3145","3121"]
    },"3815":{"name":"Yale @ Renard","desc":"2228 YALE BLVD SE \u0026 RENARD PL SE","coordinates":[-106.6218,35.0567],"related_stops":["3797","2937","3817","5670","3795","3815"],"transfer_routes":["3130"],"related_routes":["3117","3145","3121"]
    },"3817":{"name":"Yale @ Gibson","desc":"YALE \u0026 GIBSON","coordinates":[-106.6219,35.0594],"related_stops":["3797","2937","3817","5670","3795","3815"],"transfer_routes":["3117","3130"],"related_routes":["3145","3121"]
    },"4439":{"name":"1st @ Central (in front of A.T.C.)","desc":"110 1ST ST SW","coordinates":[-106.6481,35.0835],"related_stops":["4703","6930","4835","4439","4837","4441","4701","6932","4841","4831","4843","4833","4845","6972","4847","4839","4829","9999"],"transfer_routes":["3136"],"related_routes":["3129","3135","3137","3141","3109","3110","3111","3112","3117","3127","3128","3130","3132","3133","3143","3144","3146","3121","3123","3138","3139"]
    },"4441":{"name":"1st @ Central (in front of A.T.C.)","desc":"1ST ST SW \u0026 1ST ST NW","coordinates":[-106.648,35.0838],"related_stops":["4703","6930","4835","4439","4837","4441","4701","6932","4841","4831","4843","4833","4845","6972","4847","4839","4829","9999"],"transfer_routes":["3138","3139"],"related_routes":["3129","3135","3137","3141","3109","3110","3111","3112","3117","3127","3128","3130","3132","3133","3136","3143","3144","3146","3121","3123"]
    },"4701":{"name":"Central @ 1st (across from A.T.C.)","desc":"107 CENTRAL AVE W \u0026 1ST ST NW","coordinates":[-106.6484,35.0842],"related_stops":["4703","6930","4835","4439","4837","4441","4701","6932","4841","4831","4843","4833","4845","6972","4847","4839","4829","9999"],"transfer_routes":["3138","3139"],"related_routes":["3129","3135","3137","3141","3109","3110","3111","3112","3117","3127","3128","3130","3132","3133","3136","3143","3144","3146","3121","3123"]
    },"4703":{"name":"Central @ 1st (across from A.T.C.)","desc":"113 CENTRAL AVE W","coordinates":[-106.6487,35.0843],"related_stops":["4703","6930","4835","4439","4837","4441","4701","6932","4841","4831","4843","4833","4845","6972","4847","4839","4829","9999"],"transfer_routes":["3136"],"related_routes":["3129","3135","3137","3141","3109","3110","3111","3112","3117","3127","3128","3130","3132","3133","3143","3144","3146","3121","3123","3138","3139"]
    },"4829":{"name":"A.T.C.  (Bay K)","desc":"GOLD AVE SW","coordinates":[-106.6478,35.0827],"related_stops":["4703","6930","4835","4439","4837","4441","4701","6932","4841","4831","4843","4833","4845","6972","4847","4839","4829","9999"],"transfer_routes":["3121"],"related_routes":["3129","3135","3137","3141","3109","3110","3111","3112","3117","3127","3128","3130","3132","3133","3136","3143","3144","3146","3123","3138","3139"]
    },"4831":{"name":"A.T.C.  (Bay L)","desc":"1ST ST SW \u0026 GOLD AVE SW","coordinates":[-106.6477,35.0829],"related_stops":["4703","6930","4835","4439","4837","4441","4701","6932","4841","4831","4843","4833","4845","6972","4847","4839","4829","9999"],"transfer_routes":["3133"],"related_routes":["3129","3135","3137","3141","3109","3110","3111","3112","3117","3127","3128","3130","3132","3136","3143","3144","3146","3121","3123","3138","3139"]
    },"4833":{"name":"A.T.C.  (Bay M)","desc":"1ST ST SW \u0026 GOLD AVE SW","coordinates":[-106.6477,35.0831],"related_stops":["4703","6930","4835","4439","4837","4441","4701","6932","4841","4831","4843","4833","4845","6972","4847","4839","4829","9999"],"transfer_routes":["3135","3111","3117"],"related_routes":["3129","3137","3141","3109","3110","3112","3127","3128","3130","3132","3133","3136","3143","3144","3146","3121","3123","3138","3139"]
    },"4835":{"name":"A.T.C.  (Bay C)","desc":"CENTRAL AVE W \u0026 COPPER AVE NW","coordinates":[-106.6476,35.0837],"related_stops":["4703","6930","4835","4439","4837","4441","4701","6932","4841","4831","4843","4833","4845","6972","4847","4839","4829","9999"],"transfer_routes":["3109"],"related_routes":["3129","3135","3137","3141","3110","3111","3112","3117","3127","3128","3130","3132","3133","3136","3143","3144","3146","3121","3123","3138","3139"]
    },"4837":{"name":"A.T.C.  (Bay D)","desc":"","coordinates":[-106.6475,35.0836],"related_stops":["4703","6930","4835","4439","4837","4441","4701","6932","4841","4831","4843","4833","4845","6972","4847","4839","4829","9999"],"transfer_routes":["3110"],"related_routes":["3129","3135","3137","3141","3109","3111","3112","3117","3127","3128","3130","3132","3133","3136","3143","3144","3146","3121","3123","3138","3139"]
    },"4839":{"name":"A.T.C.  (Bay E)","desc":"","coordinates":[-106.6475,35.0834],"related_stops":["4703","6930","4835","4439","4837","4441","4701","6932","4841","4831","4843","4833","4845","6972","4847","4839","4829","9999"],"transfer_routes":["3144","3123"],"related_routes":["3129","3135","3137","3141","3109","3110","3111","3112","3117","3127","3128","3130","3132","3133","3136","3143","3146","3121","3138","3139"]
    },"4841":{"name":"A.T.C.  (Bay F)","desc":"","coordinates":[-106.6475,35.0832],"related_stops":["4703","6930","4835","4439","4837","4441","4701","6932","4841","4831","4843","4833","4845","6972","4847","4839","4829","9999"],"transfer_routes":["3132"],"related_routes":["3129","3135","3137","3141","3109","3110","3111","3112","3117","3127","3128","3130","3133","3136","3143","3144","3146","3121","3123","3138","3139"]
    },"4843":{"name":"A.T.C.  (Bay G)","desc":"","coordinates":[-106.6476,35.083],"related_stops":["4703","6930","4835","4439","4837","4441","4701","6932","4841","4831","4843","4833","4845","6972","4847","4839","4829","9999"],"transfer_routes":["3129"],"related_routes":["3135","3137","3141","3109","3110","3111","3112","3117","3127","3128","3130","3132","3133","3136","3143","3144","3146","3121","3123","3138","3139"]
    },"4845":{"name":"A.T.C.  (Bay H)","desc":"","coordinates":[-106.6476,35.0829],"related_stops":["4703","6930","4835","4439","4837","4441","4701","6932","4841","4831","4843","4833","4845","6972","4847","4839","4829","9999"],"transfer_routes":["3141"],"related_routes":["3129","3135","3137","3109","3110","3111","3112","3117","3127","3128","3130","3132","3133","3136","3143","3144","3146","3121","3123","3138","3139"]
    },"4847":{"name":"A.T.C.  (Bay J)","desc":"","coordinates":[-106.6476,35.0827],"related_stops":["4703","6930","4835","4439","4837","4441","4701","6932","4841","4831","4843","4833","4845","6972","4847","4839","4829","9999"],"transfer_routes":["3146"],"related_routes":["3129","3135","3137","3141","3109","3110","3111","3112","3117","3127","3128","3130","3132","3133","3136","3143","3144","3121","3123","3138","3139"]
    },"5646":{"name":"University @ Isotopes Stadium","desc":"1112 UNIVERSITY BLVD SE \u0026 SHIELDS  SE","coordinates":[-106.6307,35.0701],"related_stops":["5646","6344"],"transfer_routes":["3117","3142","3121"],"related_routes":[]
    },"5670":{"name":"Gibson @ Yale","desc":"2111 GIBSON BLVD SE \u0026 YALE BLVD SE","coordinates":[-106.6225,35.0586],"related_stops":["3797","2937","3817","5670","3795","3815"],"transfer_routes":["3117","3145","3121"],"related_routes":["3130"]
    },"6338":{"name":"University @ Coal","desc":"1715 COAL PL SE \u0026 UNIVERSITY BLVD SE","coordinates":[-106.6277,35.0776],"related_stops":["6438","3491","7428","6440","6338","3185"],"transfer_routes":["3117"],"related_routes":["3142","3146","3121"]
    },"6344":{"name":"University @ Shields-Research Park","desc":"","coordinates":[-106.6311,35.0706],"related_stops":["5646","6344"],"transfer_routes":["3117","3142","3121"],"related_routes":[]
    },"6352":{"name":"University @ Gibson","desc":"1909 UNIVERSITY BLVD SE \u0026 EASTERN AVE SE","coordinates":[-106.6316,35.0605],"related_stops":["2933","2935","6428","7422","6352"],"transfer_routes":["3117","3121"],"related_routes":["3145"]
    },"6400":{"name":"Carlisle @ Gibson","desc":"1608 CARLISLE BLVD SE \u0026 CREST AVE SE","coordinates":[-106.6042,35.0589],"related_stops":["2927","2941","7438","6400"],"transfer_routes":["3117"],"related_routes":["3145","3121","3122"]
    },"6428":{"name":"University @ Varsity","desc":"1832 UNIVERSITY BLVD SE","coordinates":[-106.6316,35.0615],"related_stops":["2933","2935","6428","7422","6352"],"transfer_routes":["3117","3121"],"related_routes":["3145"]
    },"6436":{"name":"University @ Basehart (C.N.M.)","desc":"720 UNIVERSITY BLVD SE","coordinates":[-106.6295,35.0733],"related_stops":["7426","6436"],"transfer_routes":["3117","3142","3121"],"related_routes":[]
    },"6438":{"name":"University @ Coal","desc":"UNIVERSITY BLVD SE","coordinates":[-106.6274,35.076],"related_stops":["6438","3491","7428","6440","6338","3185"],"transfer_routes":["3117","3121"],"related_routes":["3142","3146"]
    },"6440":{"name":"University @ Coal Place","desc":"1804 COAL PL SE \u0026 UNIVERSITY BLVD SE","coordinates":[-106.6274,35.0773],"related_stops":["6438","3491","7428","6440","6338","3185"],"transfer_routes":["3117","3142"],"related_routes":["3146","3121"]
    },"6494":{"name":"San Mateo @ Gibson","desc":"1424 SAN MATEO BLVD SE","coordinates":[-106.5864,35.0591],"related_stops":["2919","2949","2951","6516","6494","7228"],"transfer_routes":["3113","3114"],"related_routes":["3117","3145","3121","3122"]
    },"6516":{"name":"San Mateo @ Eastern","desc":"1411 SAN MATEO BLVD SE","coordinates":[-106.5866,35.0596],"related_stops":["2919","2949","2951","6516","6494","7228"],"transfer_routes":["3113","3114"],"related_routes":["3117","3145","3121","3122"]
    },"6930":{"name":"A.T.C.  (Bay B)","desc":"","coordinates":[-106.6476,35.0835],"related_stops":["4703","6930","4835","4439","4837","4441","4701","6932","4841","4831","4843","4833","4845","6972","4847","4839","4829","9999"],"transfer_routes":["3127","3128"],"related_routes":["3129","3135","3137","3141","3109","3110","3111","3112","3117","3130","3132","3133","3136","3143","3144","3146","3121","3123","3138","3139"]
    },"6932":{"name":"A.T.C.  (Bay A)","desc":"","coordinates":[-106.6477,35.0833],"related_stops":["4703","6930","4835","4439","4837","4441","4701","6932","4841","4831","4843","4833","4845","6972","4847","4839","4829","9999"],"transfer_routes":["3130"],"related_routes":["3129","3135","3137","3141","3109","3110","3111","3112","3117","3127","3128","3132","3133","3136","3143","3144","3146","3121","3123","3138","3139"]
    },"6972":{"name":"A.T.C.  (Bay N)","desc":"","coordinates":[-106.648,35.0827],"related_stops":["4703","6930","4835","4439","4837","4441","4701","6932","4841","4831","4843","4833","4845","6972","4847","4839","4829","9999"],"transfer_routes":["3137","3112","3117","3143"],"related_routes":["3129","3135","3141","3109","3110","3111","3127","3128","3130","3132","3133","3136","3144","3146","3121","3123","3138","3139"]
    },"7174":{"name":"Girard @ Gibson","desc":"2141 GIRARD BLVD SE","coordinates":[-106.6134,35.0579],"related_stops":["2939","7174","7586","2929"],"transfer_routes":["3122"],"related_routes":["3145","3121"]
    },"7228":{"name":"Gibson @ Madeira","desc":"5207 GIBSON BLVD SE \u0026 MADEIRA DR SE","coordinates":[-106.584,35.0585],"related_stops":["2919","2949","2951","6516","6494","7228"],"transfer_routes":["3117"],"related_routes":["3145","3113","3114","3121","3122"]
    },"7422":{"name":"University @ Eastern","desc":"2120 UNIVERSITY BLVD SE","coordinates":[-106.631,35.0601],"related_stops":["2933","2935","6428","7422","6352"],"transfer_routes":["3117"],"related_routes":["3145","3121"]
    },"7426":{"name":"University @ Basehart","desc":"725 UNIVERSITY BLVD SE \u0026 BASEHART  SE","coordinates":[-106.6298,35.0734],"related_stops":["7426","6436"],"transfer_routes":["3117"],"related_routes":["3142","3121"]
    },"7428":{"name":"University @ Coal","desc":"717 UNIVERSITY BLVD SE \u0026 COAL AVE SE","coordinates":[-106.628,35.0755],"related_stops":["6438","3491","7428","6440","6338","3185"],"transfer_routes":["3117","3121"],"related_routes":["3142","3146"]
    },"7438":{"name":"Gibson @ Carlisle","desc":"3611 GIBSON BLVD SE","coordinates":[-106.603,35.0584],"related_stops":["2927","2941","7438","6400"],"transfer_routes":["3117","3145"],"related_routes":["3121","3122"]
    },"7586":{"name":"Girard @ Gibson","desc":"GIRARD BLVD SE \u0026 GIBSON BLVD SE","coordinates":[-106.6132,35.0577],"related_stops":["2939","7174","7586","2929"],"transfer_routes":["3122"],"related_routes":["3145","3121"]
    },"9999":{"name":"Alvarado Transportation Center (ATC)","desc":"1ST \u0026 CENTRAL SW","coordinates":[-106.6477,35.0833],"related_stops":["4703","6930","4835","4439","4837","4441","4701","6932","4841","4831","4843","4833","4845","6972","4847","4839","4829","9999"],"transfer_routes":[],"related_routes":["3129","3135","3137","3141","3109","3110","3111","3112","3117","3127","3128","3130","3132","3133","3136","3143","3144","3146","3121","3123","3138","3139"]
    }
  },
  "trip_data": {
    "shapes": {
      "a2450": {
        "bearing": 110.02,"centroid":[-106.6173,35.0681],
        "bounds": [[-106.65,35.0535],[0.0,35.0837]
        ],"coordinates":[[-106.64783100005049,35.08284],[-106.64768500005046,35.08368],[-106.64749600005042,35.083733],[-106.64764400005046,35.082607],[-106.64832900005061,35.082725],[-106.64823200005058,35.08307],[-106.64943800005086,35.083241],[-106.64998500005098,35.080283],[-106.62867900004636,35.077545],[-106.62846900004631,35.077257],[-106.62775500004615,35.075682],[-106.6304300000467,35.072445],[-106.63089500004679,35.071536],[-106.63089900004678,35.065996],[-106.63103300004681,35.064905],[-106.6315250000469,35.06377],[-106.63179800004696,35.062406],[-106.63172500004694,35.061043],[-106.63088900004675,35.059497],[-106.63080800004674,35.058489],[-106.61329900004318,35.058421],[-106.60123200004087,35.058216],[-106.58707800003829,35.058183],[-106.58648500003818,35.058338],[-106.58535300003798,35.058351],[-106.57436600003608,35.058195],[-106.55964700003365,35.058203],[-106.55964100003364,35.053944],[-106.54957500003206,35.053942],[-106.54957600003206,35.053544]],
        "distances": [0.0,0.0949,0.1144,0.2456,0.309,0.3488,0.4595,0.7946,2.7463,2.7835,2.972,3.408,3.5179,4.1381,4.2607,4.3961,4.5501,4.7033,4.8927,5.0052,6.5894,7.6807,8.9617,9.0177,9.1207,10.1139,11.4459,11.9219,12.8337,12.8787]
      },
      "e46c1": {
        "bearing": 290.02,"centroid":[-106.6117,35.0663],
        "bounds": [[-106.6498,35.0525],[0.0,35.0837]
        ],"coordinates":[[-106.54957600003206,35.053544],[-106.54955700003205,35.052558],[-106.55666800003317,35.052539],[-106.55665500003317,35.053903],[-106.55964100003364,35.053944],[-106.55964700003365,35.058203],[-106.57436600003608,35.058195],[-106.58535300003798,35.058351],[-106.58648500003818,35.058338],[-106.58707800003829,35.058183],[-106.60123200004087,35.058216],[-106.61329900004318,35.058421],[-106.63080800004674,35.058489],[-106.63088900004675,35.059497],[-106.63172500004694,35.061043],[-106.63179800004696,35.062406],[-106.6315250000469,35.06377],[-106.63103300004681,35.064905],[-106.63089900004678,35.065996],[-106.63089500004679,35.071536],[-106.6304300000467,35.072445],[-106.62756300004611,35.075931],[-106.62738100004609,35.078368],[-106.64978400005093,35.081273],[-106.64943800005086,35.083241],[-106.64780800005049,35.083001],[-106.64768500005046,35.08368],[-106.64749600005042,35.083733],[-106.64764400005046,35.082607],[-106.64783100005049,35.08284]],
        "distances": [0.0,0.11,0.7541,0.9061,1.1777,1.6537,2.9858,3.979,4.082,4.138,5.419,6.5103,8.0945,8.207,8.3964,8.5495,8.7036,8.8389,8.9615,9.5818,9.6917,10.1604,10.4344,12.4866,12.7088,12.8593,12.9361,12.9556,13.0868,13.1256]
      }
    },
    "stop_lists": {
      "0c97f": ["4829","7428","6344","6352","2937","2939","2941","2951","2885","2887","2889"],
      "40d3d": ["2889","2891","2893","2895","2919","2927","2929","5670","6428","5646","6436","6438","4829"]
    },
    "stop_times": {
      "2197a": [0,360,432,565,690,786,879,1080,1504,1553,1620],
      "a30c0": [0,360,432,565,690,786,879,1080,1598,1658,1740],
      "2d9f1": [0,40,81,133,540,718,802,884,997,1097,1140,1191,1620]
    },
    "stop_distances": {
      "7b541": [0.0,3.0001,3.6211,4.7672,5.8403,6.6655,7.4647,9.1657,12.085,12.4236,12.8787],
      "b4420": [0.0,0.301,0.6071,0.9987,4.005,5.731,6.5503,7.3453,8.4475,9.4165,9.8184,10.1754,13.1183]
    },
    "dwell_times": {
      "469aa": [0,0,0,0,0,0,0,0,0,0,0,0,0],
      "3e5ce": [0,0,0,0,0,0,0,0,0,0,0]
    },
    "trips": {
      "1": [
        {"id":"404660","direction":0,"start_time":23220,"stops_key":"0c97f","stop_distances":"7b541","stop_times":"2197a","stop_dwells":"3e5ce","shape_key":"a2450"},
        {"id":"404659","direction":0,"start_time":26520,"stops_key":"0c97f","stop_distances":"7b541","stop_times":"a30c0","stop_dwells":"3e5ce","shape_key":"a2450"},
        {"id":"404658","direction":0,"start_time":58800,"stops_key":"0c97f","stop_distances":"7b541","stop_times":"2197a","stop_dwells":"3e5ce","shape_key":"a2450"},
        {"id":"404663","direction":1,"start_time":25260,"stops_key":"40d3d","stop_distances":"b4420","stop_times":"2d9f1","stop_dwells":"469aa","shape_key":"e46c1"},
        {"id":"404662","direction":1,"start_time":56940,"stops_key":"40d3d","stop_distances":"b4420","stop_times":"2d9f1","stop_dwells":"469aa","shape_key":"e46c1"},
        {"id":"404661","direction":1,"start_time":61020,"stops_key":"40d3d","stop_distances":"b4420","stop_times":"2d9f1","stop_dwells":"469aa","shape_key":"e46c1"}
      ]
    }
  }
}