{
  "id": "3209",
  "short_name": "37",
  "long_name": "Rio Grande/12th Street",
  "color": "800000",
  "text_color": "FFFFFF",
  "schedules": {
    "1_merged_704231081": {
      "start_date": "20181222",
      "end_date": "20190524",
      "days_mask_mon_sun": 124,"added_days":[],"removed_days":[]
    }
  },
  "related_route_data": {"3210":{"short_name":"5","long_name":"Montgomery/Carlisle","color":"FF4E21","text_color":"000000"
    },"3216":{"short_name":"6","long_name":"Indian School Commuter","color":"E171E1","text_color":"000000"
    },"3218":{"short_name":"7","long_name":"Candelaria Commuter","color":"FF7F54","text_color":"000000"
    },"3222":{"short_name":"8","long_name":"Menaul","color":"7B097B","text_color":"FFFFFF"
    },"3190":{"short_name":"10","long_name":"North Fourth Street","color":"C30000","text_color":"FFFFFF"
    },"3191":{"short_name":"11","long_name":"Lomas","color":"800080","text_color":"FFFFFF"
    },"3192":{"short_name":"12","long_name":"Constitution Commuter","color":"B7FF00","text_color":"000000"
    },"3193":{"short_name":"13","long_name":"Comanche Commuter","color":"006267","text_color":"FFFFFF"
    },"3198":{"short_name":"16","long_name":"University/Gibson/Broadway","color":"C01D8C","text_color":"FFFFFF"
    },"3208":{"short_name":"36","long_name":"12th Street/Rio Grande","color":"800000","text_color":"FFFFFF"
    },"3209":{"short_name":"37","long_name":"Rio Grande/12th Street","color":"800000","text_color":"FFFFFF"
    },"3211":{"short_name":"50","long_name":"Airport/Downtown","color":"71220F","text_color":"FFFFFF"
    },"3213":{"short_name":"53","long_name":"Isleta","color":"2390CF","text_color":"000000"
    },"3214":{"short_name":"54","long_name":"Bridge/Westgate","color":"006097","text_color":"FFFFFF"
    },"3217":{"short_name":"66","long_name":"Central Avenue","color":"00DEC8","text_color":"000000"
    },"3223":{"short_name":"92","long_name":"Taylor Ranch Express","color":"D43815","text_color":"FFFFFF"
    },"3224":{"short_name":"93","long_name":"Academy Commuter","color":"9494FF","text_color":"000000"
    },"3225":{"short_name":"94","long_name":"Unser Commuter","color":"3988FF","text_color":"000000"
    },"3227":{"short_name":"97","long_name":"Zuni Express","color":"6600FF","text_color":"FFFFFF"
    },"3202":{"short_name":"217","long_name":"Downtown-KAFB Ltd.","color":"FDDC00","text_color":"000000"
    },"3204":{"short_name":"250","long_name":"Airport/Downtown Express","color":"F34C00","text_color":"000000"
    },"3219":{"short_name":"766","long_name":"Red Line Rapid Ride","color":"EC0000","text_color":"FFFFFF"
    },"3220":{"short_name":"777","long_name":"Green Line Rapid Ride","color":"00FF00","text_color":"000000"
    },"3221":{"short_name":"790","long_name":"Blue Line Rapid Ride","color":"0000FF","text_color":"FFFFFF"
    }
  },
  "stops": {"1571":{"name":"Lomas @ 5th","desc":"410 LOMAS BLVD NW","coordinates":[-106.6509,35.0911],"related_stops":["7206","5305","1571","6988","7176"],"transfer_routes":["3224"],"related_routes":["3222","3190","3208","3209","3223","3225","3221"]
    },"1735":{"name":"Lead @ 5th","desc":"411 LEAD AVE SW","coordinates":[-106.6527,35.0817],"related_stops":["1735","6976","6978"],"transfer_routes":["3213","3214"],"related_routes":["3222","3208","3209"]
    },"2485":{"name":"6th @ Silver","desc":"322 6TH ST SW \u0026 SILVER AVE SW","coordinates":[-106.6543,35.0826],"related_stops":["4437","4438","6980","2485","6979"],"transfer_routes":["3213","3214"],"related_routes":["3222","3208","3209","3217","3219","3220"]
    },"4417":{"name":"Central @ Rio Grande (Rapid)","desc":"2052 CENTRAL AVE W \u0026 ROMERO ST NW","coordinates":[-106.671,35.0948],"related_stops":["4417","4419","7166"],"transfer_routes":["3219","3221"],"related_routes":["3208","3209","3217"]
    },"4419":{"name":"Central @ Rio Grande","desc":"2026 CENTRAL AVE W \u0026 ROMERO ST NW","coordinates":[-106.6708,35.0947],"related_stops":["4417","4419","7166"],"transfer_routes":["3208","3217"],"related_routes":["3209","3219","3221"]
    },"4425":{"name":"Central @ San Pasquale","desc":"1904 CENTRAL AVE W \u0026 RANCHO SECO RD NW","coordinates":[-106.6682,35.0927],"related_stops":["4815","4817","6987","4723","4425","6986","4819"],"transfer_routes":["3217"],"related_routes":["3208","3209"]
    },"4437":{"name":"Gold @ 5th","desc":"506 GOLD AVE SW \u0026 5TH ST SW","coordinates":[-106.6535,35.0837],"related_stops":["4437","4438","6980","2485","6979"],"transfer_routes":["3213","3214","3217"],"related_routes":["3222","3208","3209","3219","3220"]
    },"4438":{"name":"Gold @ 5th (Rapid)","desc":"510 GOLD AVE SW \u0026 6TH ST SW","coordinates":[-106.6537,35.0837],"related_stops":["4437","4438","6980","2485","6979"],"transfer_routes":["3219","3220"],"related_routes":["3222","3208","3209","3213","3214","3217"]
    },"4439":{"name":"1st @ Central (in front of A.T.C.)","desc":"110 1ST ST SW","coordinates":[-106.6481,35.0835],"related_stops":["4703","6930","4835","4439","4837","4441","4701","6932","4841","4831","4843","4833","4845","6972","4847","4839","4829","9999"],"transfer_routes":["3217"],"related_routes":["3210","3216","3218","3222","3190","3191","3192","3193","3198","3208","3209","3211","3213","3214","3224","3225","3227","3202","3204","3219","3220"]
    },"4441":{"name":"1st @ Central (in front of A.T.C.)","desc":"1ST ST SW \u0026 1ST ST NW","coordinates":[-106.648,35.0838],"related_stops":["4703","6930","4835","4439","4837","4441","4701","6932","4841","4831","4843","4833","4845","6972","4847","4839","4829","9999"],"transfer_routes":["3219","3220"],"related_routes":["3210","3216","3218","3222","3190","3191","3192","3193","3198","3208","3209","3211","3213","3214","3217","3224","3225","3227","3202","3204"]
    },"4701":{"name":"Central @ 1st (across from A.T.C.)","desc":"107 CENTRAL AVE W \u0026 1ST ST NW","coordinates":[-106.6484,35.0842],"related_stops":["4703","6930","4835","4439","4837","4441","4701","6932","4841","4831","4843","4833","4845","6972","4847","4839","4829","9999"],"transfer_routes":["3219","3220"],"related_routes":["3210","3216","3218","3222","3190","3191","3192","3193","3198","3208","3209","3211","3213","3214","3217","3224","3225","3227","3202","3204"]
    },"4703":{"name":"Central @ 1st (across from A.T.C.)","desc":"113 CENTRAL AVE W","coordinates":[-106.6487,35.0843],"related_stops":["4703","6930","4835","4439","4837","4441","4701","6932","4841","4831","4843","4833","4845","6972","4847","4839","4829","9999"],"transfer_routes":["3217"],"related_routes":["3210","3216","3218","3222","3190","3191","3192","3193","3198","3208","3209","3211","3213","3214","3224","3225","3227","3202","3204","3219","3220"]
    },"4707":{"name":"Copper @ 5th","desc":"501 COPPER AVE NW \u0026 5TH ST NW","coordinates":[-106.653,35.0858],"related_stops":["6982","4709","4707"],"transfer_routes":["3219","3220"],"related_routes":["3222","3208","3209","3217"]
    },"4709":{"name":"Copper @ 6th","desc":"503 COPPER AVE NW \u0026 6TH ST NW","coordinates":[-106.6534,35.0859],"related_stops":["6982","4709","4707"],"transfer_routes":["3217"],"related_routes":["3222","3208","3209","3219","3220"]
    },"4723":{"name":"Central @ San Pasquale","desc":"1907 CENTRAL AVE W \u0026 RANCHO SECO RD NW","coordinates":[-106.6682,35.093],"related_stops":["4815","4817","6987","4723","4425","6986","4819"],"transfer_routes":["3217"],"related_routes":["3208","3209"]
    },"4727":{"name":"Lomas @ 7th","desc":"707 LOMAS BLVD NW \u0026 7TH ST NW","coordinates":[-106.6544,35.0917],"related_stops":["4827","4727"],"transfer_routes":["3208","3209"],"related_routes":[]
    },"4729":{"name":"Lomas @ 11th","desc":"704 11TH ST NW \u0026 LOMAS BLVD NW","coordinates":[-106.6584,35.0921],"related_stops":["4823","4729"],"transfer_routes":["3208","3209"],"related_routes":[]
    },"4731":{"name":"12th @ Granite","desc":"906 12TH ST NW \u0026 GRANITE AVE NW","coordinates":[-106.6589,35.0952],"related_stops":["4731","6938"],"transfer_routes":["3208"],"related_routes":["3209"]
    },"4733":{"name":"12th @ Rosemont","desc":"1108 12TH ST NW \u0026 ROSEMONT AVE NW","coordinates":[-106.6587,35.0972],"related_stops":["4733","6942"],"transfer_routes":["3208"],"related_routes":["3209"]
    },"4735":{"name":"12th @ Arias","desc":"1208 12TH ST NW \u0026 ARIAS AVE NW","coordinates":[-106.6586,35.0986],"related_stops":["4735","4737","6940"],"transfer_routes":["3208"],"related_routes":["3209"]
    },"4737":{"name":"12th @ Bellamah","desc":"1312 12TH ST NW \u0026 BELLAMAH AVE NW","coordinates":[-106.6584,35.1001],"related_stops":["4735","4737","6940"],"transfer_routes":["3208"],"related_routes":["3209"]
    },"4739":{"name":"12th @ Aspen","desc":"1548 12TH ST NW \u0026 ASPEN AVE NW","coordinates":[-106.6578,35.1023],"related_stops":["4739","6939"],"transfer_routes":["3208"],"related_routes":["3209"]
    },"4743":{"name":"12th @ Indian School","desc":"2124 12TH ST NW","coordinates":[-106.6585,35.108],"related_stops":["4745","7009","4743"],"transfer_routes":["3222","3208"],"related_routes":["3209"]
    },"4745":{"name":"12th @ Indian School","desc":"2336 12TH ST NW","coordinates":[-106.6582,35.1107],"related_stops":["4745","7009","4743"],"transfer_routes":["3222","3208"],"related_routes":["3209"]
    },"4747":{"name":"12th @ Menaul","desc":"2606 12TH ST NW \u0026 WOODLAND AVE NW","coordinates":[-106.6578,35.1126],"related_stops":["4747","7192","6936"],"transfer_routes":["3208"],"related_routes":["3222","3209"]
    },"4749":{"name":"12th @ Phoenix","desc":"3016 12TH ST NW \u0026 PHOENIX AVE NW","coordinates":[-106.6573,35.1151],"related_stops":["4749","6935"],"transfer_routes":["3208"],"related_routes":["3209"]
    },"4751":{"name":"12th @ Los Arboles","desc":"3128 12TH ST NW \u0026 LOS ARBOLES AVE NW","coordinates":[-106.6567,35.117],"related_stops":["4751","6933"],"transfer_routes":["3208"],"related_routes":["3209"]
    },"4757":{"name":"Candelaria @ 12th","desc":"1225 CANDELARIA RD NW","coordinates":[-106.6563,35.123],"related_stops":["4757","7462","6929"],"transfer_routes":["3208"],"related_routes":["3209"]
    },"4761":{"name":"Candelaria @ San Isidro","desc":"1759 CANDELARIA RD NW","coordinates":[-106.6643,35.1236],"related_stops":["4761","7420","6925"],"transfer_routes":["3208"],"related_routes":["3209"]
    },"4763":{"name":"San Isidro @ Paragon","desc":"3828 SAN ISIDRO ST NW \u0026 DON JUAN CT NW","coordinates":[-106.6656,35.1261],"related_stops":["4763","6921"],"transfer_routes":["3208"],"related_routes":["3209"]
    },"4765":{"name":"San Isidro @ Valley Pool","desc":"VALLEY POOL RD NW \u0026 SAN ISIDRO ST NW","coordinates":[-106.6653,35.1277],"related_stops":["4765","6920"],"transfer_routes":["3208"],"related_routes":["3209"]
    },"4767":{"name":"San Isidro @ Van Cleave (Griegos El","desc":"4042 SAN ISIDRO ST NW \u0026 VAN CLEAVE RD NW","coordinates":[-106.6647,35.1293],"related_stops":["4767","6919"],"transfer_routes":["3208"],"related_routes":["3209"]
    },"4771":{"name":"San Isidro @ Arcadian","desc":"4434 SAN ISIDRO ST NW","coordinates":[-106.664,35.1319],"related_stops":["4771","6915"],"transfer_routes":["3208"],"related_routes":["3209"]
    },"4773":{"name":"San Isidro @ Griegos","desc":"SAN ISIDRO ST NW \u0026 AVENIDA CRISTO REY  NW","coordinates":[-106.6628,35.1343],"related_stops":["4773","6914"],"transfer_routes":["3208"],"related_routes":["3209"]
    },"4777":{"name":"Griegos @ Rio Grande","desc":"2025 GRIEGOS RD NW","coordinates":[-106.6684,35.1366],"related_stops":["4777","6912"],"transfer_routes":["3208"],"related_routes":["3209"]
    },"4781":{"name":"Rio Grande @ Don Onofre","desc":"3601 RIO GRANDE BLVD NW \u0026 LUKE CIR NW","coordinates":[-106.6716,35.1324],"related_stops":["4781","6909"],"transfer_routes":["3208"],"related_routes":["3209"]
    },"4783":{"name":"Rio Grande @ Arbor","desc":"2403 ARBOR RD NW \u0026 RIO GRANDE BLVD NW","coordinates":[-106.6724,35.1308],"related_stops":["4783","6908"],"transfer_routes":["3208"],"related_routes":["3209"]
    },"4785":{"name":"Rio Grande @ Headingly","desc":"3311 RIO GRANDE BLVD NW \u0026 HEADINGLY AVE NW","coordinates":[-106.6733,35.1286],"related_stops":["4785","6907"],"transfer_routes":["3208"],"related_routes":["3209"]
    },"4789":{"name":"Rio Grande @ Candelaria","desc":"3115 RIO GRANDE BLVD NW \u0026 CANDELARIA RD NW","coordinates":[-106.6739,35.1253],"related_stops":["4789","6906"],"transfer_routes":["3208"],"related_routes":["3209"]
    },"4791":{"name":"Rio Grande @ Oro Vista","desc":"2405 ORO VISTA RD NW \u0026 RIO GRANDE BLVD NW","coordinates":[-106.6745,35.1234],"related_stops":["4791","6905"],"transfer_routes":["3208"],"related_routes":["3209"]
    },"4793":{"name":"Rio Grande @ Campbell","desc":"2803 RIO GRANDE BLVD NW \u0026 CAMPBELL RD NW","coordinates":[-106.675,35.1217],"related_stops":["4793","6904"],"transfer_routes":["3208"],"related_routes":["3209"]
    },"4797":{"name":"Rio Grande @ Matthew","desc":"2407 RIO GRANDE BLVD NW \u0026 DON QUIXOTE DR NW","coordinates":[-106.6756,35.1181],"related_stops":["4797","6903"],"transfer_routes":["3208"],"related_routes":["3209"]
    },"4799":{"name":"Rio Grande @ Don Fernando","desc":"2227 RIO GRANDE BLVD NW","coordinates":[-106.675,35.1158],"related_stops":["4799","6901"],"transfer_routes":["3208"],"related_routes":["3209"]
    },"4801":{"name":"Rio Grande @ Zickert","desc":"1823 RIO GRANDE BLVD NW \u0026 ZICKERT RD NW","coordinates":[-106.6735,35.1116],"related_stops":["4801","7000"],"transfer_routes":["3208"],"related_routes":["3209"]
    },"4803":{"name":"Rio Grande @ Rice","desc":"1503 RIO GRANDE BLVD NW \u0026 RICE AVE NW","coordinates":[-106.6725,35.1099],"related_stops":["4803","6995"],"transfer_routes":["3208"],"related_routes":["3209"]
    },"4805":{"name":"Rio Grande @ Lilac","desc":"1309 RIO GRANDE BLVD NW \u0026 LILAC AVE NW","coordinates":[-106.6716,35.1081],"related_stops":["4807","4805","6993"],"transfer_routes":["3208"],"related_routes":["3209"]
    },"4807":{"name":"Rio Grande @ Floral","desc":"1207 RIO GRANDE BLVD NW \u0026 FLORAL RD NW","coordinates":[-106.6712,35.1071],"related_stops":["4807","4805","6993"],"transfer_routes":["3208"],"related_routes":["3209"]
    },"4809":{"name":"Rio Grande @ Zearing","desc":"905 RIO GRANDE BLVD NW \u0026 ZEARING AVE NW","coordinates":[-106.6709,35.1025],"related_stops":["4809","6991"],"transfer_routes":["3208"],"related_routes":["3209"]
    },"4811":{"name":"Rio Grande @ Pueblo Bonito","desc":"2403 PUEBLO BONITO CT NW \u0026 RIO GRANDE BLVD NW","coordinates":[-106.6707,35.1002],"related_stops":["4811","6990"],"transfer_routes":["3208"],"related_routes":["3209"]
    },"4813":{"name":"Rio Grande @ Mountain","desc":"505 RIO GRANDE BLVD NW \u0026 CHARLEVOIX ST NW","coordinates":[-106.671,35.0982],"related_stops":["4813","6989"],"transfer_routes":["3208"],"related_routes":["3209"]
    },"4815":{"name":"Lomas @ San Pasquale","desc":"1902 LOMAS BLVD NW \u0026 19TH ST NW","coordinates":[-106.668,35.0933],"related_stops":["4815","4817","6987","4723","4425","6986","4819"],"transfer_routes":["3208"],"related_routes":["3209","3217"]
    },"4817":{"name":"Lomas @ 16th","desc":"LOMAS \u0026 16 TH STREET","coordinates":[-106.6657,35.093],"related_stops":["4815","4817","6987","4723","4425","6986","4819"],"transfer_routes":["3208"],"related_routes":["3209","3217"]
    },"4819":{"name":"Lomas @ 15th","desc":"LOMAS \u0026 15 TH STREET","coordinates":[-106.6633,35.0926],"related_stops":["4815","4817","6987","4723","4425","6986","4819"],"transfer_routes":["3208"],"related_routes":["3209","3217"]
    },"4821":{"name":"Lomas @ 14th","desc":"LOMAS \u0026 14 TH STREET","coordinates":[-106.6616,35.0924],"related_stops":["4821","6985"],"transfer_routes":["3208"],"related_routes":["3209"]
    },"4823":{"name":"Lomas @ 11th","desc":"1104 LOMAS BLVD NW \u0026 11TH ST NW","coordinates":[-106.6587,35.0919],"related_stops":["4823","4729"],"transfer_routes":["3208","3209"],"related_routes":[]
    },"4825":{"name":"Lomas @ Luna","desc":"1036 LOMAS BLVD NW \u0026 LUNA BLVD NW","coordinates":[-106.6569,35.0917],"related_stops":["4825"],"transfer_routes":["3208","3209"],"related_routes":[]
    },"4827":{"name":"Lomas @ 8th","desc":"720 LOMAS BLVD NW \u0026 8TH ST NW","coordinates":[-106.655,35.0914],"related_stops":["4827","4727"],"transfer_routes":["3208","3209"],"related_routes":[]
    },"4829":{"name":"A.T.C.  (Bay K)","desc":"GOLD AVE SW","coordinates":[-106.6478,35.0827],"related_stops":["4703","6930","4835","4439","4837","4441","4701","6932","4841","4831","4843","4833","4845","6972","4847","4839","4829","9999"],"transfer_routes":["3202"],"related_routes":["3210","3216","3218","3222","3190","3191","3192","3193","3198","3208","3209","3211","3213","3214","3217","3224","3225","3227","3204","3219","3220"]
    },"4831":{"name":"A.T.C.  (Bay L)","desc":"1ST ST SW \u0026 GOLD AVE SW","coordinates":[-106.6477,35.0829],"related_stops":["4703","6930","4835","4439","4837","4441","4701","6932","4841","4831","4843","4833","4845","6972","4847","4839","4829","9999"],"transfer_routes":["3214"],"related_routes":["3210","3216","3218","3222","3190","3191","3192","3193","3198","3208","3209","3211","3213","3217","3224","3225","3227","3202","3204","3219","3220"]
    },"4833":{"name":"A.T.C.  (Bay M)","desc":"1ST ST SW \u0026 GOLD AVE SW","coordinates":[-106.6477,35.0831],"related_stops":["4703","6930","4835","4439","4837","4441","4701","6932","4841","4831","4843","4833","4845","6972","4847","4839","4829","9999"],"transfer_routes":["3216","3192","3198"],"related_routes":["3210","3218","3222","3190","3191","3193","3208","3209","3211","3213","3214","3217","3224","3225","3227","3202","3204","3219","3220"]
    },"4835":{"name":"A.T.C.  (Bay C)","desc":"CENTRAL AVE W \u0026 COPPER AVE NW","coordinates":[-106.6476,35.0837],"related_stops":["4703","6930","4835","4439","4837","4441","4701","6932","4841","4831","4843","4833","4845","6972","4847","4839","4829","9999"],"transfer_routes":["3190"],"related_routes":["3210","3216","3218","3222","3191","3192","3193","3198","3208","3209","3211","3213","3214","3217","3224","3225","3227","3202","3204","3219","3220"]
    },"4837":{"name":"A.T.C.  (Bay D)","desc":"","coordinates":[-106.6475,35.0836],"related_stops":["4703","6930","4835","4439","4837","4441","4701","6932","4841","4831","4843","4833","4845","6972","4847","4839","4829","9999"],"transfer_routes":["3191"],"related_routes":["3210","3216","3218","3222","3190","3192","3193","3198","3208","3209","3211","3213","3214","3217","3224","3225","3227","3202","3204","3219","3220"]
    },"4839":{"name":"A.T.C.  (Bay E)","desc":"","coordinates":[-106.6475,35.0834],"related_stops":["4703","6930","4835","4439","4837","4441","4701","6932","4841","4831","4843","4833","4845","6972","4847","4839","4829","9999"],"transfer_routes":["3225","3204"],"related_routes":["3210","3216","3218","3222","3190","3191","3192","3193","3198","3208","3209","3211","3213","3214","3217","3224","3227","3202","3219","3220"]
    },"4841":{"name":"A.T.C.  (Bay F)","desc":"","coordinates":[-106.6475,35.0832],"related_stops":["4703","6930","4835","4439","4837","4441","4701","6932","4841","4831","4843","4833","4845","6972","4847","4839","4829","9999"],"transfer_routes":["3213"],"related_routes":["3210","3216","3218","3222","3190","3191","3192","3193","3198","3208","3209","3211","3214","3217","3224","3225","3227","3202","3204","3219","3220"]
    },"4843":{"name":"A.T.C.  (Bay G)","desc":"","coordinates":[-106.6476,35.083],"related_stops":["4703","6930","4835","4439","4837","4441","4701","6932","4841","4831","4843","4833","4845","6972","4847","4839","4829","9999"],"transfer_routes":["3210"],"related_routes":["3216","3218","3222","3190","3191","3192","3193","3198","3208","3209","3211","3213","3214","3217","3224","3225","3227","3202","3204","3219","3220"]
    },"4845":{"name":"A.T.C.  (Bay H)","desc":"","coordinates":[-106.6476,35.0829],"related_stops":["4703","6930","4835","4439","4837","4441","4701","6932","4841","4831","4843","4833","4845","6972","4847","4839","4829","9999"],"transfer_routes":["3222"],"related_routes":["3210","3216","3218","3190","3191","3192","3193","3198","3208","3209","3211","3213","3214","3217","3224","3225","3227","3202","3204","3219","3220"]
    },"4847":{"name":"A.T.C.  (Bay J)","desc":"","coordinates":[-106.6476,35.0827],"related_stops":["4703","6930","4835","4439","4837","4441","4701","6932","4841","4831","4843","4833","4845","6972","4847","4839","4829","9999"],"transfer_routes":["3227"],"related_routes":["3210","3216","3218","3222","3190","3191","3192","3193","3198","3208","3209","3211","3213","3214","3217","3224","3225","3202","3204","3219","3220"]
    },"5305":{"name":"Lomas @ 4th","desc":"314 LOMAS BLVD NW","coordinates":[-106.6498,35.091],"related_stops":["7206","5305","1571","6988","7176"],"transfer_routes":["3190"],"related_routes":["3222","3208","3209","3223","3224","3225","3221"]
    },"6901":{"name":"Rio Grande @ Villa Dora","desc":"2234 RIO GRANDE BLVD NW \u0026 Villa Dora Way","coordinates":[-106.6749,35.1162],"related_stops":["4799","6901"],"transfer_routes":["3209"],"related_routes":["3208"]
    },"6903":{"name":"Rio Grande @ Mathew","desc":"2412 RIO GRANDE BLVD NW \u0026 MATTHEW AVE NW","coordinates":[-106.6754,35.1182],"related_stops":["4797","6903"],"transfer_routes":["3209"],"related_routes":["3208"]
    },"6904":{"name":"Rio Grande @ Campbell","desc":"2744 RIO GRANDE BLVD NW \u0026 CAMPBELL RD NW","coordinates":[-106.6749,35.1214],"related_stops":["4793","6904"],"transfer_routes":["3209"],"related_routes":["3208"]
    },"6905":{"name":"Rio Grande @ Artesanos Ct.","desc":"2948 RIO GRANDE BLVD NW \u0026 ORO VISTA RD NW","coordinates":[-106.6742,35.1234],"related_stops":["4791","6905"],"transfer_routes":["3209"],"related_routes":["3208"]
    },"6906":{"name":"Rio Grande @ Candelaria","desc":"3116 RIO GRANDE BLVD NW \u0026 CANDELARIA RD NW","coordinates":[-106.6737,35.1253],"related_stops":["4789","6906"],"transfer_routes":["3209"],"related_routes":["3208"]
    },"6907":{"name":"Rio Grande @ Headingly","desc":"3306 RIO GRANDE BLVD NW \u0026 HEADINGLY AVE NW","coordinates":[-106.6731,35.1285],"related_stops":["4785","6907"],"transfer_routes":["3209"],"related_routes":["3208"]
    },"6908":{"name":"Rio Grande @ Luke","desc":"3502 RIO GRANDE BLVD NW \u0026 LUKE CIR NW","coordinates":[-106.6723,35.1304],"related_stops":["4783","6908"],"transfer_routes":["3209"],"related_routes":["3208"]
    },"6909":{"name":"Rio Grande @ Don Onefre","desc":"3604 RIO GRANDE BLVD NW \u0026 LUKE CIR NW","coordinates":[-106.6713,35.1324],"related_stops":["4781","6909"],"transfer_routes":["3209"],"related_routes":["3208"]
    },"6912":{"name":"Griegos @ Rio Grande","desc":"2014 GRIEGOS RD NW","coordinates":[-106.668,35.1364],"related_stops":["4777","6912"],"transfer_routes":["3209"],"related_routes":["3208"]
    },"6914":{"name":"Griegos @ San Isidro","desc":"1814 GRIEGOS RD NW \u0026 PATRICK PL NW","coordinates":[-106.6633,35.1347],"related_stops":["4773","6914"],"transfer_routes":["3209"],"related_routes":["3208"]
    },"6915":{"name":"San Isidro @ Arcadian","desc":"4429 SAN ISIDRO ST NW","coordinates":[-106.6641,35.132],"related_stops":["4771","6915"],"transfer_routes":["3209"],"related_routes":["3208"]
    },"6919":{"name":"San Isidro @ Calle Los Vecinos","desc":"4041 SAN ISIDRO ST NW \u0026 CALLE LOS VECINOS NW","coordinates":[-106.665,35.129],"related_stops":["4767","6919"],"transfer_routes":["3209"],"related_routes":["3208"]
    },"6920":{"name":"San Isidro @ Cherokee","desc":"4001 SAN ISIDRO ST NW \u0026 CHEROKEE RD NW","coordinates":[-106.6655,35.1276],"related_stops":["4765","6920"],"transfer_routes":["3209"],"related_routes":["3208"]
    },"6921":{"name":"San Isidro @ Don Juan","desc":"3803 SAN ISIDRO ST NW \u0026 DON JUAN CT NW","coordinates":[-106.6658,35.1256],"related_stops":["4763","6921"],"transfer_routes":["3209"],"related_routes":["3208"]
    },"6925":{"name":"Candelaria @ San Isidro","desc":"1760 CANDELARIA RD NW","coordinates":[-106.6643,35.1234],"related_stops":["4761","7420","6925"],"transfer_routes":["3209"],"related_routes":["3208"]
    },"6927":{"name":"Candelaria @ Valley HS","desc":"1436 CANDELARIA RD NW","coordinates":[-106.6596,35.1233],"related_stops":["7252","6927"],"transfer_routes":["3209"],"related_routes":["3208"]
    },"6929":{"name":"Candelaria @ 12th","desc":"1218 CANDELARIA RD NW","coordinates":[-106.656,35.1227],"related_stops":["4757","7462","6929"],"transfer_routes":["3209"],"related_routes":["3208"]
    },"6930":{"name":"A.T.C.  (Bay B)","desc":"","coordinates":[-106.6476,35.0835],"related_stops":["4703","6930","4835","4439","4837","4441","4701","6932","4841","4831","4843","4833","4845","6972","4847","4839","4829","9999"],"transfer_routes":["3208","3209"],"related_routes":["3210","3216","3218","3222","3190","3191","3192","3193","3198","3211","3213","3214","3217","3224","3225","3227","3202","3204","3219","3220"]
    },"6932":{"name":"A.T.C.  (Bay A)","desc":"","coordinates":[-106.6477,35.0833],"related_stops":["4703","6930","4835","4439","4837","4441","4701","6932","4841","4831","4843","4833","4845","6972","4847","4839","4829","9999"],"transfer_routes":["3211"],"related_routes":["3210","3216","3218","3222","3190","3191","3192","3193","3198","3208","3209","3213","3214","3217","3224","3225","3227","3202","3204","3219","3220"]
    },"6933":{"name":"12th @ Mathew","desc":"3207 12TH ST NW \u0026 LOS ARBOLES AVE NW","coordinates":[-106.6567,35.1176],"related_stops":["4751","6933"],"transfer_routes":["3209"],"related_routes":["3208"]
    },"6935":{"name":"12th @ Phoenix","desc":"3013 12TH ST NW \u0026 PHOENIX AVE NW","coordinates":[-106.6575,35.115],"related_stops":["4749","6935"],"transfer_routes":["3209"],"related_routes":["3208"]
    },"6936":{"name":"12th @ Menaul","desc":"2507 12TH ST NW","coordinates":[-106.6581,35.1118],"related_stops":["4747","7192","6936"],"transfer_routes":["3222","3209"],"related_routes":["3208"]
    },"6938":{"name":"12th @ Granite","desc":"907 12TH ST NW \u0026 GRANITE AVE NW","coordinates":[-106.6591,35.0952],"related_stops":["4731","6938"],"transfer_routes":["3209"],"related_routes":["3208"]
    },"6939":{"name":"12th @ Aspen","desc":"1545 12TH ST NW \u0026 ASPEN AVE NW","coordinates":[-106.6579,35.1027],"related_stops":["4739","6939"],"transfer_routes":["3209"],"related_routes":["3208"]
    },"6940":{"name":"12th @ Sawmill","desc":"1221 12TH ST NW \u0026 BELLAMAH AVE NW","coordinates":[-106.6587,35.0995],"related_stops":["4735","4737","6940"],"transfer_routes":["3209"],"related_routes":["3208"]
    },"6942":{"name":"12th @ Summer","desc":"1109 12TH ST NW \u0026 SUMMER AVE NW","coordinates":[-106.6588,35.0975],"related_stops":["4733","6942"],"transfer_routes":["3209"],"related_routes":["3208"]
    },"6972":{"name":"A.T.C.  (Bay N)","desc":"","coordinates":[-106.648,35.0827],"related_stops":["4703","6930","4835","4439","4837","4441","4701","6932","4841","4831","4843","4833","4845","6972","4847","4839","4829","9999"],"transfer_routes":["3218","3193","3198","3224"],"related_routes":["3210","3216","3222","3190","3191","3192","3208","3209","3211","3213","3214","3217","3225","3227","3202","3204","3219","3220"]
    },"6974":{"name":"3rd @ Silver","desc":"211 3RD ST SW \u0026 SILVER AVE SW","coordinates":[-106.6508,35.0828],"related_stops":["6974"],"transfer_routes":["3222","3208","3209"],"related_routes":[]
    },"6975":{"name":"2rd @ Silver","desc":"272 2ND ST SW \u0026 SILVER AVE SW","coordinates":[-106.6495,35.0825],"related_stops":["6975"],"transfer_routes":["3222","3208","3209"],"related_routes":[]
    },"6976":{"name":"Silver @ 5Th","desc":"411 1ST ST SW \u0026 5TH ST SW","coordinates":[-106.6528,35.0827],"related_stops":["1735","6976","6978"],"transfer_routes":["3222","3208","3209"],"related_routes":["3213","3214"]
    },"6978":{"name":"4th @ Silver","desc":"404 SILVER AVE SW \u0026 4TH ST SW","coordinates":[-106.6524,35.0825],"related_stops":["1735","6976","6978"],"transfer_routes":["3222","3208","3209"],"related_routes":["3213","3214"]
    },"6979":{"name":"6th @ Gold","desc":"205 6TH ST SW \u0026 GOLD AVE SW","coordinates":[-106.6543,35.0836],"related_stops":["4437","4438","6980","2485","6979"],"transfer_routes":["3222","3208","3209"],"related_routes":["3213","3214","3217","3219","3220"]
    },"6980":{"name":"5th @ Gold","desc":"5TH ST SW \u0026 GOLD AVE SW","coordinates":[-106.6529,35.0841],"related_stops":["4437","4438","6980","2485","6979"],"transfer_routes":["3222","3208","3209"],"related_routes":["3213","3214","3217","3219","3220"]
    },"6981":{"name":"6th @ Tijeras","desc":"303 6TH ST NW \u0026 TIJERAS AVE NW","coordinates":[-106.6536,35.0874],"related_stops":["6981"],"transfer_routes":["3222","3208","3209"],"related_routes":[]
    },"6982":{"name":"5th @ Copper","desc":"226 SILVER AVE SW \u0026 5TH ST SW","coordinates":[-106.6525,35.086],"related_stops":["6982","4709","4707"],"transfer_routes":["3222","3208","3209"],"related_routes":["3217","3219","3220"]
    },"6983":{"name":"6th @ Fruit","desc":"607 6TH ST NW \u0026 FRUIT AVE NW","coordinates":[-106.653,35.0907],"related_stops":["6983"],"transfer_routes":["3222","3208","3209"],"related_routes":[]
    },"6984":{"name":"5th @ Marquette","desc":"316 5TH ST NW \u0026 MARQUETTE AVE NW","coordinates":[-106.6521,35.0881],"related_stops":["6984"],"transfer_routes":["3222","3208","3209"],"related_routes":[]
    },"6985":{"name":"Lomas @ 13th","desc":"604 13TH ST NW \u0026 LOMAS BLVD NW","coordinates":[-106.6607,35.0925],"related_stops":["4821","6985"],"transfer_routes":["3209"],"related_routes":["3208"]
    },"6986":{"name":"Lomas @ 16th","desc":"500 17TH ST NW \u0026 16TH ST NW","coordinates":[-106.6643,35.093],"related_stops":["4815","4817","6987","4723","4425","6986","4819"],"transfer_routes":["3209"],"related_routes":["3208","3217"]
    },"6987":{"name":"Lomas @ Rancho Seco","desc":"RANCHO SECO RD NW","coordinates":[-106.6668,35.0934],"related_stops":["4815","4817","6987","4723","4425","6986","4819"],"transfer_routes":["3209"],"related_routes":["3208","3217"]
    },"6988":{"name":"5th @ Fruit","desc":"606 5TH ST NW \u0026 FRUIT AVE NW","coordinates":[-106.6516,35.0905],"related_stops":["7206","5305","1571","6988","7176"],"transfer_routes":["3222","3208","3209","3223"],"related_routes":["3190","3224","3225","3221"]
    },"6989":{"name":"Rio Grande @ Mountain","desc":"418 RIO GRANDE BLVD NW \u0026 CHARLEVOIX ST NW","coordinates":[-106.6709,35.0979],"related_stops":["4813","6989"],"transfer_routes":["3209"],"related_routes":["3208"]
    },"6990":{"name":"Rio Grande @ Bellamah","desc":"752 RIO GRANDE BLVD NW \u0026 CARSON RD NW","coordinates":[-106.6705,35.1006],"related_stops":["4811","6990"],"transfer_routes":["3209"],"related_routes":["3208"]
    },"6991":{"name":"Rio Grande @ Zearing","desc":"906 RIO GRANDE BLVD NW \u0026 ZEARING AVE NW","coordinates":[-106.6706,35.1027],"related_stops":["4809","6991"],"transfer_routes":["3209"],"related_routes":["3208"]
    },"6993":{"name":"Rio Grande @ Floral","desc":"1212 RIO GRANDE BLVD NW","coordinates":[-106.671,35.1073],"related_stops":["4807","4805","6993"],"transfer_routes":["3209"],"related_routes":["3208"]
    },"6995":{"name":"Rio Grande @ Indian School","desc":"1418 RIO GRANDE BLVD NW \u0026 RICE AVE NW","coordinates":[-106.672,35.1096],"related_stops":["4803","6995"],"transfer_routes":["3209"],"related_routes":["3208"]
    },"7000":{"name":"Rio Grande @ Mananitas","desc":"1816 RIO GRANDE BLVD NW \u0026 MANANITAS LN NW","coordinates":[-106.6732,35.1115],"related_stops":["4801","7000"],"transfer_routes":["3209"],"related_routes":["3208"]
    },"7002":{"name":"Rio Grande @ El Nido","desc":"2026 RIO GRANDE BLVD NW","coordinates":[-106.674,35.1137],"related_stops":["7002"],"transfer_routes":["3209"],"related_routes":[]
    },"7009":{"name":"12th @ Indian School","desc":"2173 12TH ST NW \u0026 INDIAN SCHOOL RD NW","coordinates":[-106.6587,35.1084],"related_stops":["4745","7009","4743"],"transfer_routes":["3222","3209"],"related_routes":["3208"]
    },"7166":{"name":"Central @ Rio Grande (Rapid)","desc":"2023 CENTRAL AVE W \u0026 ROMERO ST NW","coordinates":[-106.6705,35.0948],"related_stops":["4417","4419","7166"],"transfer_routes":["3209","3217","3219","3221"],"related_routes":["3208"]
    },"7176":{"name":"Lomas @ 4th","desc":"406 LOMAS BLVD NW \u0026 4TH ST NW","coordinates":[-106.6507,35.0911],"related_stops":["7206","5305","1571","6988","7176"],"transfer_routes":["3221"],"related_routes":["3222","3190","3208","3209","3223","3224","3225"]
    },"7192":{"name":"Menaul @ 12th","desc":"1016 MENAUL BLVD NW","coordinates":[-106.6573,35.1121],"related_stops":["4747","7192","6936"],"transfer_routes":["3222"],"related_routes":["3208","3209"]
    },"7206":{"name":"Lomas @ 4th","desc":"Lomas \u0026 5th Street","coordinates":[-106.6499,35.0912],"related_stops":["7206","5305","1571","6988","7176"],"transfer_routes":["3190","3224","3225","3221"],"related_routes":["3222","3208","3209","3223"]
    },"7252":{"name":"Candelaria @ Valley HS","desc":"1511 CANDELARIA RD NW","coordinates":[-106.6604,35.1236],"related_stops":["7252","6927"],"transfer_routes":["3208"],"related_routes":["3209"]
    },"7420":{"name":"San Isidro @ Candelaria","desc":"3710 SAN ISIDRO ST NW \u0026 CANDELARIA RD NW","coordinates":[-106.6658,35.1242],"related_stops":["4761","7420","6925"],"transfer_routes":["3208"],"related_routes":["3209"]
    },"7462":{"name":"12th @ Candelaria","desc":"3626 12TH ST NW","coordinates":[-106.6551,35.1221],"related_stops":["4757","7462","6929"],"transfer_routes":["3208"],"related_routes":["3209"]
    },"9999":{"name":"Alvarado Transportation Center (ATC)","desc":"1ST \u0026 CENTRAL SW","coordinates":[-106.6477,35.0833],"related_stops":["4703","6930","4835","4439","4837","4441","4701","6932","4841","4831","4843","4833","4845","6972","4847","4839","4829","9999"],"transfer_routes":[],"related_routes":["3210","3216","3218","3222","3190","3191","3192","3193","3198","3208","3209","3211","3213","3214","3217","3224","3225","3227","3202","3204","3219","3220"]
    }
  },
  "trip_data": {
    "shapes": {
      "dcf60": {
        "bearing": 0.0,"centroid":[-106.6593,35.1021],
        "bounds": [[-106.6755,35.0823],[0.0,35.1368]
        ],"coordinates":[[-106.64777600005048,35.082715],[-106.64764000005046,35.083742],[-106.64745200005042,35.083787],[-106.64755500005043,35.082643],[-106.64773200005048,35.082625],[-106.64795300005052,35.082626],[-106.64831800005061,35.082716],[-106.6482220000506,35.083078],[-106.64879400005071,35.08317],[-106.65058600005112,35.083395],[-106.65078400005116,35.082405],[-106.6531740000517,35.082735],[-106.65155900005138,35.091339],[-106.65275900005165,35.091492],[-106.65640400005246,35.091641],[-106.66779000005515,35.093364],[-106.66956300005558,35.094067],[-106.67141600005603,35.09513],[-106.671235000056,35.097533],[-106.67058800005584,35.098639],[-106.67080700005593,35.106102],[-106.67166400005615,35.108538],[-106.67243900005634,35.110133],[-106.67327000005655,35.111221],[-106.6746500000569,35.114913],[-106.6754000000571,35.117316],[-106.67552500005712,35.119138],[-106.67531900005709,35.120397],[-106.67391300005676,35.124745],[-106.67332500005662,35.127902],[-106.67284600005652,35.129378],[-106.6715600000562,35.132275],[-106.66908500005562,35.136223],[-106.66900900005561,35.136816],[-106.66760100005527,35.136314],[-106.66662500005502,35.135724],[-106.66407100005442,35.135053],[-106.6627780000541,35.134514],[-106.66444800005449,35.131123],[-106.66444300005449,35.130141],[-106.66544200005471,35.127764],[-106.66593500005483,35.123844],[-106.66400400005436,35.123409],[-106.66056100005355,35.123522],[-106.65500200005225,35.122698],[-106.65735300005278,35.115237],[-106.65863100005305,35.108608],[-106.65855800005302,35.107274],[-106.65749300005277,35.103862],[-106.65861200005301,35.099863],[-106.65890100005306,35.095617],[-106.65973200005325,35.09215],[-106.65640400005246,35.091641],[-106.65598900005239,35.091596],[-106.65275900005165,35.091492],[-106.65435900005197,35.082876],[-106.65198400005143,35.082558],[-106.65078400005116,35.082404],[-106.6496120000509,35.082264],[-106.64942800005086,35.083249],[-106.64879400005071,35.08317],[-106.6478750000505,35.083037],[-106.64766200005046,35.08376],[-106.64751800005044,35.083814],[-106.64735300005039,35.08376],[-106.64752200005043,35.082643],[-106.64773200005048,35.082599],[-106.64777600005048,35.082715]],
        "distances": [0.0,0.1158,0.1342,0.2673,0.2835,0.3035,0.3379,0.3797,0.4327,0.5966,0.7089,0.9289,1.9026,2.012,2.3425,3.3903,3.5689,3.7758,4.0453,4.1832,5.0194,5.3041,5.4955,5.6393,6.0698,6.3477,6.5529,6.6953,7.1986,7.5556,7.7261,8.0709,8.566,8.6326,8.7741,8.8853,9.1281,9.26,9.669,9.7794,10.0604,10.502,10.6838,10.9954,11.5061,12.3684,13.1192,13.2693,13.664,14.1228,14.5993,2.6487,2.3425,2.3042,2.012,16.6068,0.8192,16.935,17.0421,0.4904,0.4327,17.2963,17.3808,17.3959,17.412,17.5379,17.559,0.0]
      }
    },
    "stop_lists": {
      "c9c10": ["6930","6974","6976","6980","6982","6984","6988","4727","4729","6985","6986","6987","7166","6989","6990","6991","6993","6995","7000","7002","6901","6903","6904","6905","6906","6907","6908","6909","6912","6914","6915","6919","6920","6921","6925","6927","6929","6933","6935","6936","7009","6939","6940","6942","6938","4823","4825","4827","6983","6981","6979","6978","6975","6930"]
    },
    "stop_times": {
      "b7877": [0,125,168,205,245,290,340,406,480,513,564,599,660,704,737,762,818,846,872,900,930,960,989,1006,1023,1050,1067,1086,1140,1212,1265,1320,1343,1376,1428,1490,1539,1640,1684,1740,1799,1900,1955,1989,2028,2100,2136,2173,2238,2318,2410,2467,2529,2640]
    },
    "stop_distances": {
      "fc60e": [0.0,0.6624,0.8924,1.0877,1.3013,1.5416,1.8084,2.1581,2.53,2.7427,3.0714,3.3012,3.6864,4.0972,4.4034,4.6397,5.1596,5.4236,5.6706,5.9284,6.2108,6.4466,6.8165,7.0456,7.2685,7.6225,7.8491,8.0932,8.7389,9.2136,9.5618,9.9193,10.0759,10.3023,10.6561,11.0822,11.4178,12.1015,12.4022,12.7624,13.1443,13.8009,14.1613,14.3849,14.6429,15.0867,15.2526,15.425,15.7243,16.0951,16.5207,16.787,17.0743,17.5726]
    },
    "dwell_times": {
      "10369": [0,0,0,0,0,0,0,0,0,0,0,0,0,0,0,0,0,0,0,0,0,0,0,0,0,0,0,0,0,0,0,0,0,0,0,0,0,0,0,0,0,0,0,0,0,0,0,0,0,0,0,0,0,0]
    },
    "trips": {
      "1_merged_704231081": [
        {"id":"414846","direction":0,"start_time":23340,"stops_key":"c9c10","stop_distances":"fc60e","stop_times":"b7877","stop_dwells":"10369","shape_key":"dcf60"},
        {"id":"414835","direction":0,"start_time":27120,"stops_key":"c9c10","stop_distances":"fc60e","stop_times":"b7877","stop_dwells":"10369","shape_key":"dcf60"},
        {"id":"414836","direction":0,"start_time":30720,"stops_key":"c9c10","stop_distances":"fc60e","stop_times":"b7877","stop_dwells":"10369","shape_key":"dcf60"},
        {"id":"414837","direction":0,"start_time":34320,"stops_key":"c9c10","stop_distances":"fc60e","stop_times":"b7877","stop_dwells":"10369","shape_key":"dcf60"},
        {"id":"414838","direction":0,"start_time":37920,"stops_key":"c9c10","stop_distances":"fc60e","stop_times":"b7877","stop_dwells":"10369","shape_key":"dcf60"},
        {"id":"414839","direction":0,"start_time":41520,"stops_key":"c9c10","stop_distances":"fc60e","stop_times":"b7877","stop_dwells":"10369","shape_key":"dcf60"},
        {"id":"414840","direction":0,"start_time":45120,"stops_key":"c9c10","stop_distances":"fc60e","stop_times":"b7877","stop_dwells":"10369","shape_key":"dcf60"},
        {"id":"414841","direction":0,"start_time":48720,"stops_key":"c9c10","stop_distances":"fc60e","stop_times":"b7877","stop_dwells":"10369","shape_key":"dcf60"},
        {"id":"414842","direction":0,"start_time":52320,"stops_key":"c9c10","stop_distances":"fc60e","stop_times":"b7877","stop_dwells":"10369","shape_key":"dcf60"},
        {"id":"414843","direction":0,"start_time":55920,"stops_key":"c9c10","stop_distances":"fc60e","stop_times":"b7877","stop_dwells":"10369","shape_key":"dcf60"},
        {"id":"414844","direction":0,"start_time":59520,"stops_key":"c9c10","stop_distances":"fc60e","stop_times":"b7877","stop_dwells":"10369","shape_key":"dcf60"},
        {"id":"414845","direction":0,"start_time":63120,"stops_key":"c9c10","stop_distances":"fc60e","stop_times":"b7877","stop_dwells":"10369","shape_key":"dcf60"}
      ]
    }
  }
}