{
  "id": "4256",
  "short_name": "97",
  "long_name": "Zuni Express",
  "color": "6600FF",
  "text_color": "FFFFFF",
  "schedules": {
    "1": {
      "start_date": "20221105",
      "end_date": "20230317",
      "days_mask_mon_sun": 124,"added_days":[],"removed_days":[]
    }
  },
  "related_route_data": {"4239":{"short_name":"5","long_name":"Montgomery/Carlisle","color":"FF4E21","text_color":"000000"
    },"4247":{"short_name":"7","long_name":"Candelaria Commuter","color":"FF7F54","text_color":"000000"
    },"4251":{"short_name":"8","long_name":"Menaul","color":"7B097B","text_color":"FFFFFF"
    },"4219":{"short_name":"10","long_name":"North Fourth Street","color":"C30000","text_color":"FFFFFF"
    },"4220":{"short_name":"11","long_name":"Lomas","color":"800080","text_color":"FFFFFF"
    },"4221":{"short_name":"12","long_name":"Constitution Commuter","color":"B7FF00","text_color":"000000"
    },"4227":{"short_name":"16","long_name":"University/Gibson/Broadway","color":"C01D8C","text_color":"FFFFFF"
    },"4235":{"short_name":"31","long_name":"Wyoming","color":"852300","text_color":"FFFFFF"
    },"4236":{"short_name":"34","long_name":"San Pedro Commuter","color":"FF9E00","text_color":"000000"
    },"4237":{"short_name":"36","long_name":"12th Street/Rio Grande","color":"800000","text_color":"FFFFFF"
    },"4240":{"short_name":"50","long_name":"Airport/Downtown","color":"71220F","text_color":"FFFFFF"
    },"4242":{"short_name":"53","long_name":"Isleta","color":"2390CF","text_color":"000000"
    },"4243":{"short_name":"54","long_name":"Bridge/Westgate","color":"006097","text_color":"FFFFFF"
    },"4246":{"short_name":"66","long_name":"Central Avenue","color":"00DEC8","text_color":"000000"
    },"4256":{"short_name":"97","long_name":"Zuni Express","color":"6600FF","text_color":"FFFFFF"
    },"4223":{"short_name":"140","long_name":"San Mateo / CNM Work Force","color":"420080","text_color":"FFFFFF"
    },"4224":{"short_name":"141","long_name":"San Mateo","color":"7E0080","text_color":"FFFFFF"
    },"4226":{"short_name":"157","long_name":"Cottonwood/Montano/UTC","color":"008047","text_color":"FFFFFF"
    },"4248":{"short_name":"766","long_name":"ART Red Line","color":"EC0000","text_color":"FFFFFF"
    },"4249":{"short_name":"777","long_name":"ART Green Line","color":"00FF00","text_color":"000000"
    }
  },
  "stops": {"1082":{"name":"Wyoming @ Zuni","desc":"WYOMING BLVD. SE \u0026 ZUNI RD. SE","coordinates":[-106.5503,35.0719],"related_stops":["1253","1251","3455","1082","4519","4521","4597","4599","7242","4611","1249","5996","5688"],"transfer_routes":["4235"],"related_routes":["4246","4256","4249"]
    },"1150":{"name":"Zuni @ Pennsylvania","desc":"ZUNI RD SE \u0026 PENNSYLVANIA ST SE","coordinates":[-106.5596,35.0729],"related_stops":["1152","1150"],"transfer_routes":["4256"],"related_routes":[]
    },"1152":{"name":"Zuni @ Pennsylvania","desc":"ZUNI RD SE \u0026 PENNSYLVANIA ST SE","coordinates":[-106.559,35.0727],"related_stops":["1152","1150"],"transfer_routes":["4256"],"related_routes":[]
    },"1249":{"name":"Wyoming @ Central","desc":"WYOMING BLVD NE \u0026 CENTRAL AVE NE","coordinates":[-106.5506,35.0742],"related_stops":["1253","1251","3455","1082","4519","4521","4597","4599","7242","4611","1249","5996","5688"],"transfer_routes":["4235"],"related_routes":["4246","4256","4249"]
    },"1251":{"name":"Wyoming @ Zuni","desc":"WYOMING BLVD SE \u0026 ZUNI RD. SE","coordinates":[-106.5505,35.0732],"related_stops":["1253","1251","3455","1082","4519","4521","4597","4599","7242","4611","1249","5996","5688"],"transfer_routes":["4235"],"related_routes":["4246","4256","4249"]
    },"1253":{"name":"Wyoming @ Zuni","desc":"WYOMING BLVD SE \u0026 ZUNI RD. SE","coordinates":[-106.5506,35.0721],"related_stops":["1253","1251","3455","1082","4519","4521","4597","4599","7242","4611","1249","5996","5688"],"transfer_routes":["4235"],"related_routes":["4246","4256","4249"]
    },"2781":{"name":"Louisiana @ Zuni","desc":"LOUISIANA BLVD SE \u0026 ZUNI RD SE","coordinates":[-106.5687,35.0719],"related_stops":["7446","2781","3507","2819"],"transfer_routes":["4226"],"related_routes":["4256"]
    },"2819":{"name":"Louisiana @ Zuni","desc":"LOUISIANA BLVD SE \u0026 ZUNI RD SE","coordinates":[-106.5685,35.0732],"related_stops":["7446","2781","3507","2819"],"transfer_routes":["4226"],"related_routes":["4256"]
    },"3185":{"name":"Coal @ Hazeldine","desc":"COAL AVE SE \u0026 HAZELDINE AVE SE","coordinates":[-106.6281,35.0764],"related_stops":["3491","7428","3185","6438"],"transfer_routes":["4256"],"related_routes":["4227"]
    },"3455":{"name":"Zuni @ Wyoming","desc":"ZUNI RD SE \u0026 WYOMINF BLVD SE","coordinates":[-106.5495,35.0728],"related_stops":["1253","1251","3455","1082","4519","4521","4597","4599","7242","4611","1249","5996","5688"],"transfer_routes":["4256"],"related_routes":["4235","4246","4249"]
    },"3457":{"name":"Zuni @ Texas","desc":"ZUNI RD SE \u0026 TEXAS ST SE","coordinates":[-106.5554,35.0729],"related_stops":["3511","3457"],"transfer_routes":["4256"],"related_routes":[]
    },"3459":{"name":"Zuni @ San Pablo","desc":"ZUNI RD SE \u0026 SAN PABLO ST SE","coordinates":[-106.5636,35.0728],"related_stops":["3459","7286"],"transfer_routes":["4256"],"related_routes":[]
    },"3463":{"name":"Zuni @ San Pedro","desc":"ZUNI RD SE \u0026 SAN PEDRO DR SE","coordinates":[-106.5781,35.0729],"related_stops":["6018","3463","6198","3505","6016"],"transfer_routes":["4256"],"related_routes":["4236"]
    },"3465":{"name":"Zuni @ Alvarado","desc":"ZUNI RD SE \u0026 ALVARADO DR SE","coordinates":[-106.5817,35.0729],"related_stops":["3503","3465"],"transfer_routes":["4256"],"related_routes":[]
    },"3467":{"name":"Zuni @ San Mateo","desc":"5300 ZUNI RD SE","coordinates":[-106.5868,35.073],"related_stops":["6506","6504","6518","3501","3467"],"transfer_routes":["4256"],"related_routes":["4223","4224"]
    },"3469":{"name":"Zuni @ Adams","desc":"ZUNI RD SE \u0026 ADAMS ST SE","coordinates":[-106.5942,35.0744],"related_stops":["3499","3469"],"transfer_routes":["4256"],"related_routes":[]
    },"3471":{"name":"Lead @ Carlisle","desc":"LEAD AVE SE \u0026 CARLISLE BLVD SE","coordinates":[-106.6044,35.0773],"related_stops":["3497","6412","6368","3471"],"transfer_routes":["4256"],"related_routes":["4227"]
    },"3473":{"name":"Lead @ Girard","desc":"LEAD AVE SE \u0026 GIRARD BLVD SE","coordinates":[-106.613,35.0773],"related_stops":["3473"],"transfer_routes":["4256"],"related_routes":[]
    },"3475":{"name":"Lead @ Yale","desc":"LEAD AVE SE \u0026 YALE BLVD SE","coordinates":[-106.6219,35.0774],"related_stops":["3833","3777","3475"],"transfer_routes":["4256"],"related_routes":["4240"]
    },"3477":{"name":"Lead @ Mesa","desc":"LEAD AVE SE \u0026 MESA ST SE","coordinates":[-106.6263,35.0783],"related_stops":["3477"],"transfer_routes":["4256"],"related_routes":[]
    },"3479":{"name":"Lead @ Cedar","desc":"LEAD AVE SE \u0026 CEDAR ST SE","coordinates":[-106.6347,35.0794],"related_stops":["3479"],"transfer_routes":["4256"],"related_routes":[]
    },"3481":{"name":"Lead @ Elm","desc":"LEAD AVE SE \u0026 ELM ST SE","coordinates":[-106.6395,35.08],"related_stops":["3481"],"transfer_routes":["4256"],"related_routes":[]
    },"3483":{"name":"Lead @ Broadway","desc":"LEAD AVE SE \u0026 BROADWAY BLVD SE","coordinates":[-106.6449,35.0807],"related_stops":["3483"],"transfer_routes":["4256"],"related_routes":[]
    },"3485":{"name":"Coal @ Broadway","desc":"COAL AVE SE \u0026 BROADWAY BLVD SE","coordinates":[-106.6449,35.0796],"related_stops":["3485","6452","6318"],"transfer_routes":["4256"],"related_routes":["4227"]
    },"3487":{"name":"Coal @ High","desc":"COAL AVE SE \u0026 HIGH ST SE","coordinates":[-106.6408,35.0791],"related_stops":["3487"],"transfer_routes":["4256"],"related_routes":[]
    },"3488":{"name":"Coal @ Mulberry","desc":"COAL AVE SE \u0026 MULBERRY ST SE","coordinates":[-106.6363,35.0785],"related_stops":["3488"],"transfer_routes":["4256"],"related_routes":[]
    },"3489":{"name":"Coal @ Spruce","desc":"COAL AVE SE \u0026 SPRUCE ST SE","coordinates":[-106.6336,35.0781],"related_stops":["3489"],"transfer_routes":["4256"],"related_routes":[]
    },"3491":{"name":"Coal @ University","desc":"COAL AVE SE \u0026 UNIVERSITY BLVD SE","coordinates":[-106.6258,35.0749],"related_stops":["3491","7428","3185","6438"],"transfer_routes":["4256"],"related_routes":["4227"]
    },"3493":{"name":"Coal @ Yale","desc":"COAL AVE SE \u0026 YALE BLVD SE","coordinates":[-106.6215,35.0753],"related_stops":["3493","5634","3779"],"transfer_routes":["4256"],"related_routes":["4240"]
    },"3495":{"name":"Coal @ Girard","desc":"COAL AVE SE \u0026 GIRARD BLVD SE","coordinates":[-106.6137,35.0754],"related_stops":["3495"],"transfer_routes":["4256"],"related_routes":[]
    },"3497":{"name":"Coal @ Carlisle","desc":"COAL AVE SE \u0026 CARLISLE BLVD SE","coordinates":[-106.6048,35.0754],"related_stops":["3497","6412","6368","3471"],"transfer_routes":["4256"],"related_routes":["4227"]
    },"3499":{"name":"Zuni @ Adams","desc":"ZUNI RD SE \u0026 ADAMS ST SE","coordinates":[-106.5945,35.0743],"related_stops":["3499","3469"],"transfer_routes":["4256"],"related_routes":[]
    },"3501":{"name":"Zuni @ San Mateo","desc":"ZUNI RD SE \u0026 SAN MATEO BLVD SE","coordinates":[-106.5855,35.0728],"related_stops":["6506","6504","6518","3501","3467"],"transfer_routes":["4256"],"related_routes":["4223","4224"]
    },"3503":{"name":"Zuni @ Alvarado","desc":"ZUNI RD SE \u0026 ALVARADO DR SE","coordinates":[-106.5815,35.0727],"related_stops":["3503","3465"],"transfer_routes":["4256"],"related_routes":[]
    },"3505":{"name":"Zuni @ San Pedro","desc":"ZUNI RD SE \u0026 SAN PEDRO DR SE","coordinates":[-106.5771,35.0727],"related_stops":["6018","3463","6198","3505","6016"],"transfer_routes":["4256"],"related_routes":["4236"]
    },"3507":{"name":"Zuni @ Alcazar","desc":"ZUNI RD SE \u0026 ALCAZAR ST SE","coordinates":[-106.5678,35.0726],"related_stops":["7446","2781","3507","2819"],"transfer_routes":["4256"],"related_routes":["4226"]
    },"3511":{"name":"Zuni @ Utah","desc":"ZUNI RD SE \u0026 UTAH ST SE","coordinates":[-106.5553,35.0727],"related_stops":["3511","3457"],"transfer_routes":["4256"],"related_routes":[]
    },"3515":{"name":"Central @ Zuni","desc":"CENTRAL AVE SE \u0026 ZUNI RD SE","coordinates":[-106.5461,35.0733],"related_stops":["3515","4593"],"transfer_routes":["4246","4256"],"related_routes":[]
    },"3777":{"name":"Yale @ Silver","desc":"YALE BLVD SE \u0026 SILVER AVE SE","coordinates":[-106.6221,35.0791],"related_stops":["3833","3777","3475"],"transfer_routes":["4240"],"related_routes":["4256"]
    },"3779":{"name":"Yale @ Coal","desc":"YALE BLVD SE \u0026 COAL AVE SE","coordinates":[-106.6221,35.0757],"related_stops":["3493","5634","3779"],"transfer_routes":["4240"],"related_routes":["4256"]
    },"3833":{"name":"Yale @ Lead","desc":"YALE BLVD SE \u0026 LEAD AVE SE","coordinates":[-106.622,35.0784],"related_stops":["3833","3777","3475"],"transfer_routes":["4240"],"related_routes":["4256"]
    },"4441":{"name":"1st @ Central (ATC)","desc":"1ST ST SW \u0026 CENTRAL AVE SW","coordinates":[-106.648,35.0838],"related_stops":["6930","6932","4841","4831","4843","4833","4845","4703","4835","4441","6972","4847","4837","7507","7528"],"transfer_routes":["4246"],"related_routes":["4239","4247","4251","4219","4220","4221","4227","4237","4240","4242","4243","4256","4248","4249"]
    },"4519":{"name":"Central @ Wyoming","desc":"CENTRAL AVE E \u0026 WYOMING BLVD SE","coordinates":[-106.5506,35.0738],"related_stops":["1253","1251","3455","1082","4519","4521","4597","4599","7242","4611","1249","5996","5688"],"transfer_routes":["4246"],"related_routes":["4235","4256","4249"]
    },"4521":{"name":"Central @ Wyoming","desc":"CENTRAL AVE SE \u0026 WYOMING BLVD SE","coordinates":[-106.5501,35.0737],"related_stops":["1253","1251","3455","1082","4519","4521","4597","4599","7242","4611","1249","5996","5688"],"transfer_routes":["4246"],"related_routes":["4235","4256","4249"]
    },"4593":{"name":"Central @ Gen Stilwell","desc":"CENTRAL AVE NE \u0026 GEN STILWELL ST NE","coordinates":[-106.5462,35.0736],"related_stops":["3515","4593"],"transfer_routes":["4246"],"related_routes":["4256"]
    },"4597":{"name":"Central @ Wyoming","desc":"CENTRAL AVE NE \u0026 WYOMING BLVD NE","coordinates":[-106.5501,35.074],"related_stops":["1253","1251","3455","1082","4519","4521","4597","4599","7242","4611","1249","5996","5688"],"transfer_routes":["4246"],"related_routes":["4235","4256","4249"]
    },"4599":{"name":"Wyoming @ Central","desc":"WYOMING BLVD NE \u0026 CENTRAL AVE NE","coordinates":[-106.5503,35.0744],"related_stops":["1253","1251","3455","1082","4519","4521","4597","4599","7242","4611","1249","5996","5688"],"transfer_routes":["4235"],"related_routes":["4246","4256","4249"]
    },"4611":{"name":"Central @ Wyoming (ART)","desc":"CENTRAL AVE NE \u0026 WYOMING BLVD NE","coordinates":[-106.5509,35.0741],"related_stops":["1253","1251","3455","1082","4519","4521","4597","4599","7242","4611","1249","5996","5688"],"transfer_routes":["4249"],"related_routes":["4235","4246","4256"]
    },"4703":{"name":"Central @ 1st (across from ATC)","desc":"CENTRAL AVE nW \u0026 1st St NW","coordinates":[-106.6487,35.0843],"related_stops":["6930","6932","4841","4831","4843","4833","4845","4703","4835","4441","6972","4847","4837","7507","7528"],"transfer_routes":["4246"],"related_routes":["4239","4247","4251","4219","4220","4221","4227","4237","4240","4242","4243","4256","4248","4249"]
    },"4831":{"name":"A.T.C.  (Bay L)","desc":"ATC BAY L","coordinates":[-106.6477,35.0829],"related_stops":["6930","6932","4841","4831","4843","4833","4845","4703","4835","4441","6972","4847","4837","7507","7528"],"transfer_routes":["4243"],"related_routes":["4239","4247","4251","4219","4220","4221","4227","4237","4240","4242","4246","4256","4248","4249"]
    },"4833":{"name":"A.T.C.  (Bay M)","desc":"ATC BAY M","coordinates":[-106.6477,35.0831],"related_stops":["6930","6932","4841","4831","4843","4833","4845","4703","4835","4441","6972","4847","4837","7507","7528"],"transfer_routes":["4221","4227"],"related_routes":["4239","4247","4251","4219","4220","4237","4240","4242","4243","4246","4256","4248","4249"]
    },"4835":{"name":"A.T.C.  (Bay C)","desc":"ATC BAY C","coordinates":[-106.6476,35.0837],"related_stops":["6930","6932","4841","4831","4843","4833","4845","4703","4835","4441","6972","4847","4837","7507","7528"],"transfer_routes":["4219"],"related_routes":["4239","4247","4251","4220","4221","4227","4237","4240","4242","4243","4246","4256","4248","4249"]
    },"4837":{"name":"A.T.C.  (Bay D)","desc":"ATC BAY D","coordinates":[-106.6475,35.0836],"related_stops":["6930","6932","4841","4831","4843","4833","4845","4703","4835","4441","6972","4847","4837","7507","7528"],"transfer_routes":["4220"],"related_routes":["4239","4247","4251","4219","4221","4227","4237","4240","4242","4243","4246","4256","4248","4249"]
    },"4841":{"name":"A.T.C.  (Bay F)","desc":"ATC BAY F","coordinates":[-106.6475,35.0832],"related_stops":["6930","6932","4841","4831","4843","4833","4845","4703","4835","4441","6972","4847","4837","7507","7528"],"transfer_routes":["4242"],"related_routes":["4239","4247","4251","4219","4220","4221","4227","4237","4240","4243","4246","4256","4248","4249"]
    },"4843":{"name":"A.T.C.  (Bay G)","desc":"ATC BAY G","coordinates":[-106.6476,35.083],"related_stops":["6930","6932","4841","4831","4843","4833","4845","4703","4835","4441","6972","4847","4837","7507","7528"],"transfer_routes":["4239"],"related_routes":["4247","4251","4219","4220","4221","4227","4237","4240","4242","4243","4246","4256","4248","4249"]
    },"4845":{"name":"A.T.C.  (Bay H)","desc":"ATC BAY H","coordinates":[-106.6476,35.0829],"related_stops":["6930","6932","4841","4831","4843","4833","4845","4703","4835","4441","6972","4847","4837","7507","7528"],"transfer_routes":["4251"],"related_routes":["4239","4247","4219","4220","4221","4227","4237","4240","4242","4243","4246","4256","4248","4249"]
    },"4847":{"name":"A.T.C.  (Bay J)","desc":"ATC Bay J","coordinates":[-106.6476,35.0827],"related_stops":["6930","6932","4841","4831","4843","4833","4845","4703","4835","4441","6972","4847","4837","7507","7528"],"transfer_routes":["4256"],"related_routes":["4239","4247","4251","4219","4220","4221","4227","4237","4240","4242","4243","4246","4248","4249"]
    },"5634":{"name":"Yale @ Oxford","desc":"YALE BLVD SE \u0026 OXFORD AVE SE","coordinates":[-106.622,35.0762],"related_stops":["3493","5634","3779"],"transfer_routes":["4240"],"related_routes":["4256"]
    },"5672":{"name":"Zuni @ Florida","desc":"ZUNI RD SE \u0026 FLORIDA ST SE","coordinates":[-106.5728,35.0726],"related_stops":["5674","5672"],"transfer_routes":["4256"],"related_routes":[]
    },"5674":{"name":"Zuni @ Florida","desc":"ZUNI RD SE \u0026 FLORIDA ST SE","coordinates":[-106.5734,35.0728],"related_stops":["5674","5672"],"transfer_routes":["4256"],"related_routes":[]
    },"5688":{"name":"Central @ Wisconsin","desc":"CENTRAL AVE E \u0026 WISCONSIN ST NE","coordinates":[-106.5511,35.0741],"related_stops":["1253","1251","3455","1082","4519","4521","4597","4599","7242","4611","1249","5996","5688"],"transfer_routes":["4246"],"related_routes":["4235","4256","4249"]
    },"5996":{"name":"Central @ Wyoming (ART)","desc":"CENTRAL AVE SE \u0026 WYOMING BLVD SE","coordinates":[-106.5497,35.0737],"related_stops":["1253","1251","3455","1082","4519","4521","4597","4599","7242","4611","1249","5996","5688"],"transfer_routes":["4249"],"related_routes":["4235","4246","4256"]
    },"6016":{"name":"San Pedro @ Zuni","desc":"SAN PEDRO DR SW \u0026 ZUNI RD SW","coordinates":[-106.5774,35.0721],"related_stops":["6018","3463","6198","3505","6016"],"transfer_routes":["4236"],"related_routes":["4256"]
    },"6018":{"name":"San Pedro @ Zuni","desc":"SAN PEDRO DR SE \u0026 ZUNI RD SE","coordinates":[-106.5774,35.0735],"related_stops":["6018","3463","6198","3505","6016"],"transfer_routes":["4236"],"related_routes":["4256"]
    },"6198":{"name":"San Pedro @ Zuni","desc":"SAN PEDRO DR SE \u0026 ZUNI RD SE","coordinates":[-106.5776,35.0733],"related_stops":["6018","3463","6198","3505","6016"],"transfer_routes":["4236"],"related_routes":["4256"]
    },"6318":{"name":"Broadway @ Iron","desc":"BROADWAY BLVD SE \u0026 IRON AVE SE","coordinates":[-106.6454,35.079],"related_stops":["3485","6452","6318"],"transfer_routes":["4227"],"related_routes":["4256"]
    },"6368":{"name":"Carlisle @ Coal","desc":"CARLISLE BLVD SE \u0026 COAL AVE SE","coordinates":[-106.6046,35.0759],"related_stops":["3497","6412","6368","3471"],"transfer_routes":["4227"],"related_routes":["4256"]
    },"6412":{"name":"Carlisle @ Lead","desc":"CARLISLE BLVD SE \u0026 LEAD AVE SE","coordinates":[-106.6045,35.0768],"related_stops":["3497","6412","6368","3471"],"transfer_routes":["4227"],"related_routes":["4256"]
    },"6438":{"name":"University @ Coal","desc":"UNIVERSITY BLVD SE \u0026 COAL AVE SE","coordinates":[-106.6274,35.076],"related_stops":["3491","7428","3185","6438"],"transfer_routes":["4227"],"related_routes":["4256"]
    },"6452":{"name":"Broadway @ Coal","desc":"BROADWAY BLVD SE \u0026 COAL AVE SE","coordinates":[-106.6457,35.0793],"related_stops":["3485","6452","6318"],"transfer_routes":["4227"],"related_routes":["4256"]
    },"6504":{"name":"San Mateo @ Bell","desc":"SAN MATEO BLVD SE \u0026 BELL AVE SE","coordinates":[-106.5861,35.0716],"related_stops":["6506","6504","6518","3501","3467"],"transfer_routes":["4223","4224"],"related_routes":["4256"]
    },"6506":{"name":"San Mateo @ Zuni","desc":"SAN MATEO BLVD SE \u0026 ZUNI RD SE","coordinates":[-106.5864,35.0719],"related_stops":["6506","6504","6518","3501","3467"],"transfer_routes":["4223","4224"],"related_routes":["4256"]
    },"6518":{"name":"San Mateo @ Zuni","desc":"SAN MATEO BLVD SE \u0026 ZUNI RD SE","coordinates":[-106.586,35.0739],"related_stops":["6506","6504","6518","3501","3467"],"transfer_routes":["4223","4224"],"related_routes":["4256"]
    },"6930":{"name":"A.T.C.  (Bay B)","desc":"","coordinates":[-106.6476,35.0835],"related_stops":["6930","6932","4841","4831","4843","4833","4845","4703","4835","4441","6972","4847","4837","7507","7528"],"transfer_routes":["4237"],"related_routes":["4239","4247","4251","4219","4220","4221","4227","4240","4242","4243","4246","4256","4248","4249"]
    },"6932":{"name":"A.T.C.  (Bay A)","desc":"ATC BAY A \u0026 1ST ST SW","coordinates":[-106.6477,35.0833],"related_stops":["6930","6932","4841","4831","4843","4833","4845","4703","4835","4441","6972","4847","4837","7507","7528"],"transfer_routes":["4240"],"related_routes":["4239","4247","4251","4219","4220","4221","4227","4237","4242","4243","4246","4256","4248","4249"]
    },"6972":{"name":"A.T.C.  (Bay N)","desc":"ATC BAY N \u0026 1ST ST SW","coordinates":[-106.648,35.0827],"related_stops":["6930","6932","4841","4831","4843","4833","4845","4703","4835","4441","6972","4847","4837","7507","7528"],"transfer_routes":["4247","4227"],"related_routes":["4239","4251","4219","4220","4221","4237","4240","4242","4243","4246","4256","4248","4249"]
    },"6975":{"name":"2nd @ Silver","desc":"2ND ST SW \u0026 SILVER AVE SW","coordinates":[-106.6495,35.0825],"related_stops":["6975"],"transfer_routes":["4251","4237","4256"],"related_routes":[]
    },"7242":{"name":"Wyoming @ Central","desc":"WYOMING BLVD SE \u0026 CENTRAL AVE SE","coordinates":[-106.5503,35.0733],"related_stops":["1253","1251","3455","1082","4519","4521","4597","4599","7242","4611","1249","5996","5688"],"transfer_routes":["4235","4256"],"related_routes":["4246","4249"]
    },"7286":{"name":"Zuni @ San Pablo","desc":"ZUNI RD SE \u0026 SAN PABLO ST SE","coordinates":[-106.563,35.0726],"related_stops":["3459","7286"],"transfer_routes":["4256"],"related_routes":[]
    },"7428":{"name":"University @ Coal","desc":"UNIVERSITY BLVD SE \u0026 COAL AVE SE","coordinates":[-106.628,35.0755],"related_stops":["3491","7428","3185","6438"],"transfer_routes":["4227"],"related_routes":["4256"]
    },"7446":{"name":"Zuni @ Louisiana","desc":"0 ZUNI RD SE \u0026 LOUISIANA BLVD. SE","coordinates":[-106.5679,35.0728],"related_stops":["7446","2781","3507","2819"],"transfer_routes":["4256"],"related_routes":["4226"]
    },"7507":{"name":"ART - Alvarado Transportation Center","desc":"1ST ST SW \u0026 CENTRAL AVE SW","coordinates":[-106.6481,35.0835],"related_stops":["6930","6932","4841","4831","4843","4833","4845","4703","4835","4441","6972","4847","4837","7507","7528"],"transfer_routes":["4248","4249"],"related_routes":["4239","4247","4251","4219","4220","4221","4227","4237","4240","4242","4243","4246","4256"]
    },"7528":{"name":"ART - Downtown Station","desc":"1ST ST NW \u0026 COPPER AVE NW","coordinates":[-106.648,35.0848],"related_stops":["6930","6932","4841","4831","4843","4833","4845","4703","4835","4441","6972","4847","4837","7507","7528"],"transfer_routes":["4248","4249"],"related_routes":["4239","4247","4251","4219","4220","4221","4227","4237","4240","4242","4243","4246","4256"]
    }
  },
  "trip_data": {
    "shapes": {
      "60358": {
        "bearing": 97.04,"centroid":[-106.6012,35.0759],
        "bounds": [[-106.65,35.0727],[0.0,35.0832]
        ],"coordinates":[[-106.64764400005046,35.082634],[-106.64835100005062,35.082622],[-106.6482220000506,35.083078],[-106.64942800005086,35.083249],[-106.64997500005097,35.080291],[-106.62866900004636,35.077553],[-106.62774500004616,35.07569],[-106.62710800004602,35.075155],[-106.62666700004593,35.075035],[-106.622118000045,35.075037],[-106.62121100004482,35.075475],[-106.59678700004011,35.075405],[-106.59535700003984,35.074968],[-106.59403300003959,35.074256],[-106.59298500003939,35.073322],[-106.59233700003928,35.072966],[-106.59135400003909,35.072912],[-106.56970200003535,35.072658],[-106.55923300003363,35.072804],[-106.55045800003225,35.072749],[-106.55043800003224,35.07386],[-106.54447000003134,35.073234],[-106.54476700003137,35.072797],[-106.54981200003215,35.07275]],
        "distances": [0.0,0.0666,0.1188,0.2294,0.5642,2.5159,2.7417,2.8256,2.8676,3.2787,3.3765,5.586,5.7249,5.8694,6.0108,6.0816,6.1708,8.1294,9.077,9.8701,9.9942,10.5376,10.5966,11.0526]
      },
      "879d4": {
        "bearing": 277.04,"centroid":[-106.6131,35.0778],
        "bounds": [[-106.6498,35.0727],[0.0,35.0838]
        ],"coordinates":[[-106.54981200003215,35.07275],[-106.55923300003363,35.072804],[-106.56970200003535,35.072658],[-106.59233700003928,35.072966],[-106.59298500003939,35.073322],[-106.59403300003959,35.074256],[-106.59620900003999,35.075431],[-106.60043100004079,35.077179],[-106.62147700004488,35.077332],[-106.622090000045,35.077461],[-106.6225980000451,35.077965],[-106.62492400004558,35.078074],[-106.64977400005093,35.081282],[-106.64942800005086,35.083249],[-106.6478640000505,35.083055],[-106.64768400005046,35.083751],[-106.64754100005044,35.083787],[-106.64764400005046,35.082634]],
        "distances": [0.0,0.8522,1.7997,3.8476,3.9183,4.0598,4.2966,4.7278,6.6313,6.6883,6.7608,6.9724,9.2481,9.4703,9.6148,9.6952,9.7099,9.8424]
      }
    },
    "stop_lists": {
      "df239": ["4847","3485","3487","3488","3489","3185","3491","3493","3495","3497","3499","3501","3503","3505","5672","3507","7286","1152","3511","7242","3515","3455"],
      "f3e89": ["3455","3457","1150","3459","7446","5674","3463","3465","3467","3469","3471","3473","3475","3477","3479","3481","3483","6975","4847"]
    },
    "stop_times": {
      "6ca1d": [0,55,96,136,178,232,279,315,360,446,552,633,720,794,924,998,1081,1181,1260],
      "bd762": [0,145,198,256,291,375,420,463,543,632,740,840,890,944,997,1058,1117,1167,1212,1281,1343,1440],
      "e257a": [0,145,198,256,291,375,420,463,543,632,740,840,900,965,1029,1102,1173,1233,1287,1370,1444,1560],
      "0942b": [0,55,96,136,178,232,279,315,360,460,584,679,780,846,962,1028,1102,1191,1260],
      "662d6": [0,145,198,256,291,375,420,463,543,632,740,840,895,955,1014,1081,1146,1201,1251,1327,1395,1500],
      "754ab": [0,65,113,159,208,271,326,368,420,520,644,739,840,914,1044,1118,1201,1301,1380],
      "e1759": [0,65,113,159,208,271,326,368,420,520,644,739,840,922,1067,1150,1242,1353,1440],
      "97dda": [0,55,96,136,178,232,279,315,360,460,584,679,780,862,1007,1090,1182,1293,1380]
    },
    "stop_distances": {
      "bcee1": [0.0,0.5061,0.8832,1.2476,1.6356,2.1308,2.5588,2.8869,3.2664,4.0799,5.0861,5.8602,6.6677,7.1038,7.8711,8.3112,8.7999,9.3914,9.8375],
      "c5f21": [0.0,1.0264,1.4019,1.8154,2.0673,2.6581,2.9486,3.3414,4.0586,4.8578,5.8295,6.7008,7.0663,7.4624,7.8534,8.2985,8.7326,9.098,9.43,9.9372,10.3897,11.0526]
    },
    "dwell_times": {
      "f2331": [0,0,0,0,0,0,0,0,0,0,0,0,0,0,0,0,0,0,0,0,0,0],
      "e6b62": [0,0,0,0,0,0,0,0,0,0,0,0,0,0,0,0,0,0,0]
    },
    "trips": {
      "1": [
        {"id":"550990","direction":0,"start_time":21900,"stops_key":"df239","stop_distances":"c5f21","stop_times":"bd762","stop_dwells":"f2331","shape_key":"60358"},
        {"id":"550989","direction":0,"start_time":25500,"stops_key":"df239","stop_distances":"c5f21","stop_times":"bd762","stop_dwells":"f2331","shape_key":"60358"},
        {"id":"550988","direction":0,"start_time":29100,"stops_key":"df239","stop_distances":"c5f21","stop_times":"662d6","stop_dwells":"f2331","shape_key":"60358"},
        {"id":"550987","direction":0,"start_time":32700,"stops_key":"df239","stop_distances":"c5f21","stop_times":"662d6","stop_dwells":"f2331","shape_key":"60358"},
        {"id":"550986","direction":0,"start_time":36300,"stops_key":"df239","stop_distances":"c5f21","stop_times":"e257a","stop_dwells":"f2331","shape_key":"60358"},
        {"id":"550985","direction":0,"start_time":39900,"stops_key":"df239","stop_distances":"c5f21","stop_times":"e257a","stop_dwells":"f2331","shape_key":"60358"},
        {"id":"550984","direction":0,"start_time":43500,"stops_key":"df239","stop_distances":"c5f21","stop_times":"e257a","stop_dwells":"f2331","shape_key":"60358"},
        {"id":"550983","direction":0,"start_time":47100,"stops_key":"df239","stop_distances":"c5f21","stop_times":"e257a","stop_dwells":"f2331","shape_key":"60358"},
        {"id":"550982","direction":0,"start_time":50700,"stops_key":"df239","stop_distances":"c5f21","stop_times":"e257a","stop_dwells":"f2331","shape_key":"60358"},
        {"id":"550981","direction":0,"start_time":54300,"stops_key":"df239","stop_distances":"c5f21","stop_times":"e257a","stop_dwells":"f2331","shape_key":"60358"},
        {"id":"550980","direction":0,"start_time":57900,"stops_key":"df239","stop_distances":"c5f21","stop_times":"e257a","stop_dwells":"f2331","shape_key":"60358"},
        {"id":"550979","direction":0,"start_time":61500,"stops_key":"df239","stop_distances":"c5f21","stop_times":"e257a","stop_dwells":"f2331","shape_key":"60358"},
        {"id":"550978","direction":0,"start_time":65100,"stops_key":"df239","stop_distances":"c5f21","stop_times":"e257a","stop_dwells":"f2331","shape_key":"60358"},
        {"id":"551003","direction":1,"start_time":23460,"stops_key":"f3e89","stop_distances":"bcee1","stop_times":"0942b","stop_dwells":"e6b62","shape_key":"879d4"},
        {"id":"551002","direction":1,"start_time":27060,"stops_key":"f3e89","stop_distances":"bcee1","stop_times":"97dda","stop_dwells":"e6b62","shape_key":"879d4"},
        {"id":"551001","direction":1,"start_time":30720,"stops_key":"f3e89","stop_distances":"bcee1","stop_times":"e1759","stop_dwells":"e6b62","shape_key":"879d4"},
        {"id":"551000","direction":1,"start_time":34320,"stops_key":"f3e89","stop_distances":"bcee1","stop_times":"e1759","stop_dwells":"e6b62","shape_key":"879d4"},
        {"id":"550999","direction":1,"start_time":37980,"stops_key":"f3e89","stop_distances":"bcee1","stop_times":"e1759","stop_dwells":"e6b62","shape_key":"879d4"},
        {"id":"550998","direction":1,"start_time":41580,"stops_key":"f3e89","stop_distances":"bcee1","stop_times":"e1759","stop_dwells":"e6b62","shape_key":"879d4"},
        {"id":"550997","direction":1,"start_time":45180,"stops_key":"f3e89","stop_distances":"bcee1","stop_times":"e1759","stop_dwells":"e6b62","shape_key":"879d4"},
        {"id":"550996","direction":1,"start_time":48780,"stops_key":"f3e89","stop_distances":"bcee1","stop_times":"e1759","stop_dwells":"e6b62","shape_key":"879d4"},
        {"id":"550995","direction":1,"start_time":52380,"stops_key":"f3e89","stop_distances":"bcee1","stop_times":"e1759","stop_dwells":"e6b62","shape_key":"879d4"},
        {"id":"550994","direction":1,"start_time":55980,"stops_key":"f3e89","stop_distances":"bcee1","stop_times":"e1759","stop_dwells":"e6b62","shape_key":"879d4"},
        {"id":"550993","direction":1,"start_time":59580,"stops_key":"f3e89","stop_distances":"bcee1","stop_times":"754ab","stop_dwells":"e6b62","shape_key":"879d4"},
        {"id":"550992","direction":1,"start_time":63180,"stops_key":"f3e89","stop_distances":"bcee1","stop_times":"754ab","stop_dwells":"e6b62","shape_key":"879d4"},
        {"id":"550991","direction":1,"start_time":66780,"stops_key":"f3e89","stop_distances":"bcee1","stop_times":"6ca1d","stop_dwells":"e6b62","shape_key":"879d4"}
      ]
    }
  }
}