{
  "id": "3058",
  "short_name": "92",
  "long_name": "Taylor Ranch Express",
  "color": "D43815",
  "text_color": "FFFFFF",
  "schedules": {
    "1": {
      "start_date": "20171125",
      "end_date": "20180511",
      "days_mask_mon_sun": 124,"added_days":[],"removed_days":["20180115"
      ]
    }
  },
  "related_route_data": {"3045":{"short_name":"5","long_name":"Montgomery/Carlisle","color":"FF4E21","text_color":"000000"
    },"3051":{"short_name":"6","long_name":"Indian School Commuter","color":"E171E1","text_color":"000000"
    },"3053":{"short_name":"7","long_name":"Candelaria Commuter","color":"FF7F54","text_color":"000000"
    },"3057":{"short_name":"8","long_name":"Menaul","color":"7B097B","text_color":"FFFFFF"
    },"3025":{"short_name":"10","long_name":"North Fourth Street","color":"C30000","text_color":"FFFFFF"
    },"3026":{"short_name":"11","long_name":"Lomas","color":"800080","text_color":"FFFFFF"
    },"3027":{"short_name":"12","long_name":"Constitution Commuter","color":"B7FF00","text_color":"000000"
    },"3028":{"short_name":"13","long_name":"Comanche Commuter","color":"006267","text_color":"FFFFFF"
    },"3033":{"short_name":"16","long_name":"University/Gibson/Broadway","color":"C01D8C","text_color":"FFFFFF"
    },"3043":{"short_name":"36","long_name":"12th Street/Rio Grande","color":"800000","text_color":"FFFFFF"
    },"3044":{"short_name":"40","long_name":"D-RIDE","color":"000000","text_color":"FFFFFF"
    },"3046":{"short_name":"50","long_name":"Airport/Downtown","color":"71220F","text_color":"FFFFFF"
    },"3052":{"short_name":"66","long_name":"Central Avenue","color":"00DEC8","text_color":"000000"
    },"3058":{"short_name":"92","long_name":"Taylor Ranch Express","color":"D43815","text_color":"FFFFFF"
    },"3059":{"short_name":"93","long_name":"Academy Commuter","color":"9494FF","text_color":"000000"
    },"3060":{"short_name":"94","long_name":"Unser Commuter","color":"3988FF","text_color":"000000"
    },"3061":{"short_name":"96","long_name":"Crosstown Commuter","color":"F3F400","text_color":"000000"
    },"3062":{"short_name":"97","long_name":"Zuni Express","color":"6600FF","text_color":"FFFFFF"
    },"3063":{"short_name":"98","long_name":"Wyoming Commuter","color":"005B3C","text_color":"FFFFFF"
    },"3031":{"short_name":"155","long_name":"Coors","color":"FF8900","text_color":"000000"
    },"3032":{"short_name":"157","long_name":"Cottonwood/Montano/UTC","color":"008047","text_color":"FFFFFF"
    },"3034":{"short_name":"162","long_name":"Ventana Ranch / Unser","color":"83361B","text_color":"FFFFFF"
    },"3037":{"short_name":"217","long_name":"Downtown-KAFB Ltd.","color":"FDDC00","text_color":"000000"
    },"3040":{"short_name":"251","long_name":"ABQ-Rio Rancho Rail Runner Shuttle","color":"006849","text_color":"FFFFFF"
    },"3050":{"short_name":"551","long_name":"Jefferson - Paseo del Norte Express","color":"008080","text_color":"FFFFFF"
    },"3054":{"short_name":"766","long_name":"Red Line Rapid Ride","color":"EC0000","text_color":"FFFFFF"
    },"3055":{"short_name":"777","long_name":"Green Line Rapid Ride","color":"00FF00","text_color":"000000"
    },"3056":{"short_name":"790","long_name":"Coors Blue Line Rapid Ride","color":"0000FF","text_color":"FFFFFF"
    }
  },
  "stops": {"1031":{"name":"Montano @ Picture Rock","desc":"6216 MONTANO RD NW \u0026 PICTURE ROCK PL NW","coordinates":[-106.7109,35.1527],"related_stops":["1433","1032","1031","1453"],"transfer_routes":["3034"],"related_routes":["3058"]
    },"1032":{"name":"Montano @ Picture Rock","desc":"6211 MONTANO RD NW","coordinates":[-106.7106,35.153],"related_stops":["1433","1032","1031","1453"],"transfer_routes":["3034"],"related_routes":["3058"]
    },"1289":{"name":"Ladera @ Lakewood","desc":"7522 LADERA DR NW \u0026 LAKEWOOD AVE NW","coordinates":[-106.7224,35.1075],"related_stops":["1569","1289"],"transfer_routes":["3058"],"related_routes":[]
    },"1291":{"name":"Unser @ Ladera","desc":"","coordinates":[-106.7297,35.1029],"related_stops":["1394","1291"],"transfer_routes":["3058","3060"],"related_routes":[]
    },"1292":{"name":"Unser @ Market St","desc":"UNSER BLVD \u0026 MARKET ST","coordinates":[-106.7257,35.1057],"related_stops":["1392","1292"],"transfer_routes":["3058"],"related_routes":[]
    },"1293":{"name":"Ladera @ 72nd","desc":"LADERA \u0026 72ND ST","coordinates":[-106.7199,35.1096],"related_stops":["1293","1568"],"transfer_routes":["3058"],"related_routes":[]
    },"1305":{"name":"Atrisco @ Everitt Rd","desc":"ATRISCO DR \u0026 EVERITT RD","coordinates":[-106.7069,35.1291],"related_stops":["1362","1305"],"transfer_routes":["3058"],"related_routes":[]
    },"1306":{"name":"Atrisco @ Milne Rd","desc":"ATRISCO DR \u0026 MILNE RD","coordinates":[-106.7075,35.1317],"related_stops":["1360","1306"],"transfer_routes":["3058"],"related_routes":[]
    },"1307":{"name":"Western Trails@ Atrisco Dr","desc":"WESTERN TR \u0026 ALONA DR","coordinates":[-106.709,35.1348],"related_stops":["1358","1307"],"transfer_routes":["3058"],"related_routes":[]
    },"1308":{"name":"Unser @ Western Trail","desc":"UNSER BLVD \u0026 WESTERN TR","coordinates":[-106.7134,35.1351],"related_stops":["1308","1715"],"transfer_routes":["3058","3060"],"related_routes":[]
    },"1309":{"name":"Unser @ Sipapu","desc":"UNSER BLVD \u0026 SIPAPU","coordinates":[-106.7093,35.1385],"related_stops":["1356","1309"],"transfer_routes":["3058","3060"],"related_routes":[]
    },"1310":{"name":"Unser @ Azuelo","desc":"5000 UNSER BLVD NW \u0026 VULCAN RD NW","coordinates":[-106.7104,35.1423],"related_stops":["1310","1354","1311","1312","1459"],"transfer_routes":["3058","3060"],"related_routes":[]
    },"1311":{"name":"Unser @ Azuelo","desc":"5050 UNSER BLVD NW","coordinates":[-106.7118,35.1443],"related_stops":["1310","1354","1311","1312","1459"],"transfer_routes":["3058","3060"],"related_routes":[]
    },"1312":{"name":"Unser @ Dellyne","desc":"5172 UNSER BLVD NW \u0026 DELLYNE AVE NW","coordinates":[-106.7128,35.1458],"related_stops":["1310","1354","1311","1312","1459"],"transfer_routes":["3060"],"related_routes":["3058"]
    },"1354":{"name":"Unser @ Dellyne","desc":"5113 UNSER BLVD NW \u0026 AZUELO AVE NW","coordinates":[-106.7124,35.1447],"related_stops":["1310","1354","1311","1312","1459"],"transfer_routes":["3058","3060"],"related_routes":[]
    },"1356":{"name":"Unser @ Sipapu","desc":"UNSER \u0026 DELLYNE","coordinates":[-106.7097,35.1395],"related_stops":["1356","1309"],"transfer_routes":["3058","3060"],"related_routes":[]
    },"1358":{"name":"Western Tr @ Atrisco","desc":"WESTERN TR \u0026 ATRISCO","coordinates":[-106.7088,35.1347],"related_stops":["1358","1307"],"transfer_routes":["3058"],"related_routes":[]
    },"1360":{"name":"Atrisco @ Milne","desc":"ATRISCO \u0026 MILNE","coordinates":[-106.7077,35.1316],"related_stops":["1360","1306"],"transfer_routes":["3058"],"related_routes":[]
    },"1362":{"name":"Atrisco @ Everitt","desc":"ATRISCO \u0026 EVERITT","coordinates":[-106.707,35.1289],"related_stops":["1362","1305"],"transfer_routes":["3058"],"related_routes":[]
    },"1392":{"name":"Ladera @ Laurelwood Parkway","desc":"LADERA \u0026 LORELWOOD","coordinates":[-106.7259,35.1059],"related_stops":["1392","1292"],"transfer_routes":["3058"],"related_routes":[]
    },"1394":{"name":"Unser @ Ladera","desc":"1641 UNSER BLVD NW","coordinates":[-106.7301,35.1032],"related_stops":["1394","1291"],"transfer_routes":["3058","3060"],"related_routes":[]
    },"1425":{"name":"Dellyne @ Dellyne Ct","desc":"6218 DELLYNE AVE NW \u0026 DELLYNE CT NW","coordinates":[-106.7109,35.1454],"related_stops":["1427","1425","1457"],"transfer_routes":["3058"],"related_routes":[]
    },"1427":{"name":"Golden @ El Toro","desc":"5204 GOLDEN AVE NW \u0026 EL TORO PL NW","coordinates":[-106.7099,35.1463],"related_stops":["1427","1425","1457"],"transfer_routes":["3058"],"related_routes":[]
    },"1429":{"name":"Golden @ Palma","desc":"GOLDON \u0026 PALMA","coordinates":[-106.7099,35.149],"related_stops":["1429"],"transfer_routes":["3058"],"related_routes":[]
    },"1431":{"name":"Golden @ Buenos Aires","desc":"GOLDON \u0026 BUENOS AIRES","coordinates":[-106.7099,35.1509],"related_stops":["1431","1455"],"transfer_routes":["3058"],"related_routes":[]
    },"1433":{"name":"Golden @ Montano","desc":"5974 GOLDEN AVE NW \u0026 MONTANO RD NW","coordinates":[-106.7099,35.1526],"related_stops":["1433","1032","1031","1453"],"transfer_routes":["3058"],"related_routes":["3034"]
    },"1435":{"name":"Montano @ Cochiti","desc":"MONTANO \u0026 COCHITI","coordinates":[-106.7071,35.1527],"related_stops":["1451","1435"],"transfer_routes":["3058","3034"],"related_routes":[]
    },"1437":{"name":"Montano @ Equestrian","desc":"MONTANO \u0026 EQUESTRIAN","coordinates":[-106.7038,35.1526],"related_stops":["1449","1437"],"transfer_routes":["3058","3034"],"related_routes":[]
    },"1439":{"name":"Montano @ Vista Montano","desc":"MONTANO \u0026 VISTA MONTANO","coordinates":[-106.7001,35.1524],"related_stops":["1447","1439"],"transfer_routes":["3058","3034"],"related_routes":[]
    },"1441":{"name":"Montano @ Valle Vista","desc":"MONTANO \u0026 VALLE VISTA","coordinates":[-106.697,35.1524],"related_stops":["1441","1445"],"transfer_routes":["3058","3034"],"related_routes":[]
    },"1443":{"name":"Montano @ Taylor Ranch","desc":"MONTANO \u0026 VALLE VISTA","coordinates":[-106.6953,35.1527],"related_stops":["3131","3129","1443","1477","3125"],"transfer_routes":["3058","3034"],"related_routes":["3032"]
    },"1445":{"name":"Montano @ Valle Vista","desc":"MONTANO \u0026 VALLE VISTA","coordinates":[-106.6969,35.1527],"related_stops":["1441","1445"],"transfer_routes":["3058","3034"],"related_routes":[]
    },"1447":{"name":"Montano @ Vista Montano","desc":"MONTANO \u0026 VISTA MONTANO","coordinates":[-106.7001,35.1527],"related_stops":["1447","1439"],"transfer_routes":["3058","3034"],"related_routes":[]
    },"1449":{"name":"Montano @ Equestrian","desc":"MONTANO \u0026 EQUESTRIAN","coordinates":[-106.7041,35.1529],"related_stops":["1449","1437"],"transfer_routes":["3058","3034"],"related_routes":[]
    },"1451":{"name":"Montano @ Cochiti","desc":"MONTANO \u0026 COCHITI","coordinates":[-106.7071,35.153],"related_stops":["1451","1435"],"transfer_routes":["3058","3034"],"related_routes":[]
    },"1453":{"name":"Golden @ Montano","desc":"GOLDEN \u0026 MONTANO","coordinates":[-106.7101,35.1525],"related_stops":["1433","1032","1031","1453"],"transfer_routes":["3058"],"related_routes":["3034"]
    },"1455":{"name":"Golden @ Flor De Mayo","desc":"GOLDEN \u0026 FLOR DE MAYO","coordinates":[-106.7101,35.1502],"related_stops":["1431","1455"],"transfer_routes":["3058"],"related_routes":[]
    },"1457":{"name":"Golden @ Dellyne","desc":"GOLDEN \u0026 DELLYNE","coordinates":[-106.7101,35.1461],"related_stops":["1427","1425","1457"],"transfer_routes":["3058"],"related_routes":[]
    },"1459":{"name":"Unser @ Vulcan","desc":"5013 UNSER BLVD NW","coordinates":[-106.7112,35.1429],"related_stops":["1310","1354","1311","1312","1459"],"transfer_routes":["3058","3060"],"related_routes":[]
    },"1465":{"name":"Ladera @ Ouray","desc":"LADERA \u0026 OURAY","coordinates":[-106.7142,35.1131],"related_stops":["1567","1465"],"transfer_routes":["3058"],"related_routes":[]
    },"1467":{"name":"Ladera @ Flor Silvestre","desc":"LADERA \u0026 FLOR SILVESTRE","coordinates":[-106.711,35.1148],"related_stops":["1565","1467"],"transfer_routes":["3058"],"related_routes":[]
    },"1469":{"name":"Ladera @ Los Tretos","desc":"LADERA \u0026 LOS TRETOS","coordinates":[-106.7089,35.1159],"related_stops":["1563","1469"],"transfer_routes":["3058"],"related_routes":[]
    },"1471":{"name":"Ladera @ Redlands","desc":"LADERA \u0026 REDLANDS","coordinates":[-106.7075,35.1182],"related_stops":["1561","1471"],"transfer_routes":["3058"],"related_routes":[]
    },"1473":{"name":"Ladera @ Sequoia","desc":"LADERA \u0026 SEQUOIA","coordinates":[-106.7081,35.1213],"related_stops":["1559","7704","7702","1473"],"transfer_routes":["3058"],"related_routes":[]
    },"1475":{"name":"Ladera @ St Joseph","desc":"LADERA \u0026 ST JOSEPH AVE","coordinates":[-106.7094,35.1267],"related_stops":["1557","1475"],"transfer_routes":["3058"],"related_routes":[]
    },"1477":{"name":"Taylor Ranch @ Montano","desc":"6044 TAYLOR RANCH DR NW \u0026 MONTANO RD NW","coordinates":[-106.6937,35.1539],"related_stops":["3131","3129","1443","1477","3125"],"transfer_routes":["3058","3032","3034"],"related_routes":[]
    },"1479":{"name":"Taylor Ranch @ Kachina","desc":"6238 TAYLOR RANCH DR NW","coordinates":[-106.6939,35.1561],"related_stops":["1555","1479"],"transfer_routes":["3058","3032","3034"],"related_routes":[]
    },"1481":{"name":"Golf Course @ La Orilla","desc":"LA ORILLA RD NW","coordinates":[-106.6913,35.16],"related_stops":["1553","1481"],"transfer_routes":["3058","3032"],"related_routes":[]
    },"1483":{"name":"Golf Course @ Homestead Circle","desc":"6996 GOLF COURSE RD NW \u0026 HOMESTEAD CIR NW","coordinates":[-106.6891,35.1623],"related_stops":["1551","1483"],"transfer_routes":["3058","3032"],"related_routes":[]
    },"1485":{"name":"Golf Course @ Homestead Circle   N","desc":"7410 GOLF COURSE RD NW","coordinates":[-106.6869,35.1675],"related_stops":["1549","1485"],"transfer_routes":["3058","3032"],"related_routes":[]
    },"1487":{"name":"Golf Course @ Butterfield","desc":"7616 GOLF COURSE RD NW","coordinates":[-106.6866,35.1714],"related_stops":["5654","1487"],"transfer_routes":["3058","3032"],"related_routes":[]
    },"1489":{"name":"Golf Course @ Calle Nortena","desc":"7712 GOLF COURSE RD NW","coordinates":[-106.6871,35.1749],"related_stops":["1683","1645","1545","1489"],"transfer_routes":["3058","3032"],"related_routes":["3060"]
    },"1491":{"name":"Golf Course @ Paseo Del Norte","desc":"7912 GOLF COURSE RD NW","coordinates":[-106.6876,35.1771],"related_stops":["1543","7458","7456","1491"],"transfer_routes":["3058","3032"],"related_routes":[]
    },"1493":{"name":"Golf Course @ Shelly Rose","desc":"8716 GOLF COURSE RD NW","coordinates":[-106.6869,35.183],"related_stops":["1541","1493"],"transfer_routes":["3058","3032"],"related_routes":[]
    },"1495":{"name":"Golf Course @ Jill Patricia","desc":"9412 GOLF COURSE RD NW \u0026 JILL PATRICIA ST NW","coordinates":[-106.6847,35.1875],"related_stops":["7366","1495"],"transfer_routes":["3058","3032"],"related_routes":[]
    },"1497":{"name":"Golf Course @ Paradise","desc":"9708 GOLF COURSE RD NW","coordinates":[-106.6832,35.1901],"related_stops":["1537","1497"],"transfer_routes":["3058","3032"],"related_routes":[]
    },"1499":{"name":"Golf Course @ Congress","desc":"9916 GOLF COURSE RD NW","coordinates":[-106.6802,35.1929],"related_stops":["1499"],"transfer_routes":["3058","3032"],"related_routes":[]
    },"1501":{"name":"Golf Course @ Greene","desc":"10024 GOLF COURSE RD NW \u0026 COUNTRY CLUB LN NW","coordinates":[-106.6808,35.1973],"related_stops":["1535","1501"],"transfer_routes":["3058","3032"],"related_routes":[]
    },"1503":{"name":"Golf Course @ Avocet","desc":"10250 GOLF COURSE RD NW \u0026 KEA AVE NW","coordinates":[-106.6792,35.2015],"related_stops":["1531","1503","1532"],"transfer_routes":["3058","3032"],"related_routes":[]
    },"1507":{"name":"Ellison @ Golf Course","desc":"ELLISON DR NW","coordinates":[-106.6745,35.2056],"related_stops":["1507","1529","7210"],"transfer_routes":["3058","3061","3031","3032"],"related_routes":[]
    },"1509":{"name":"Ellison @ 7 Bar Loop North","desc":"ELLISON DR NW \u0026 NORTH SEVEN BAR DR NW","coordinates":[-106.672,35.2059],"related_stops":["1527","1509"],"transfer_routes":["3058","3061","3031","3032"],"related_routes":[]
    },"1511":{"name":"Ellison @ Cibola Loop West","desc":"ELLISON DR NW","coordinates":[-106.6679,35.2057],"related_stops":["1525","1511"],"transfer_routes":["3058","3061","3031","3032"],"related_routes":[]
    },"1525":{"name":"Ellison @ Cibola Loop West","desc":"ELLISON DR NW","coordinates":[-106.6673,35.2061],"related_stops":["1525","1511"],"transfer_routes":["3058","3061","3031","3032"],"related_routes":[]
    },"1527":{"name":"Ellison @ 7 Bar Loop North","desc":"ELLISON DR NW \u0026 NORTH SEVEN BAR DR NW","coordinates":[-106.6721,35.2062],"related_stops":["1527","1509"],"transfer_routes":["3058","3061","3031","3032"],"related_routes":[]
    },"1529":{"name":"Golf Course @ Ellison","desc":"10479 GOLF COURSE RD NW","coordinates":[-106.6754,35.2053],"related_stops":["1507","1529","7210"],"transfer_routes":["3032"],"related_routes":["3058","3061","3031"]
    },"1531":{"name":"Golf Course @ Avocet","desc":"10383 GOLF COURSE RD NW","coordinates":[-106.6778,35.2033],"related_stops":["1531","1503","1532"],"transfer_routes":["3058","3032"],"related_routes":[]
    },"1532":{"name":"Golfcourse @ Avocet","desc":"10358 GOLF COURSE RD NW","coordinates":[-106.6776,35.2033],"related_stops":["1531","1503","1532"],"transfer_routes":["3032"],"related_routes":["3058"]
    },"1533":{"name":"Golf Course @ Irving","desc":"10275 GOLF COURSE RD NW \u0026 IRVING BLVD NW","coordinates":[-106.6802,35.2002],"related_stops":["1533"],"transfer_routes":["3058","3032"],"related_routes":[]
    },"1535":{"name":"Golf Course @ Country Club","desc":"10083 GOLF COURSE RD NW \u0026 COUNTRY CLUB LN NW","coordinates":[-106.6811,35.1978],"related_stops":["1535","1501"],"transfer_routes":["3058","3032"],"related_routes":[]
    },"1537":{"name":"Golf Course @ Paradise","desc":"9707 GOLF COURSE RD NW","coordinates":[-106.6835,35.1902],"related_stops":["1537","1497"],"transfer_routes":["3058","3032"],"related_routes":[]
    },"1541":{"name":"Golf Course @ Shelly Rose","desc":"8721 GOLF COURSE RD NW \u0026 SHELLY ROSE RD NW","coordinates":[-106.6871,35.1832],"related_stops":["1541","1493"],"transfer_routes":["3058","3032"],"related_routes":[]
    },"1543":{"name":"Golf Course @ Paseo Del Norte","desc":"7929 GOLF COURSE RD NW","coordinates":[-106.6879,35.1774],"related_stops":["1543","7458","7456","1491"],"transfer_routes":["3058","3032"],"related_routes":[]
    },"1545":{"name":"Golf Course @ Calle Nortena","desc":"7719 GOLF COURSE RD NW","coordinates":[-106.6875,35.175],"related_stops":["1683","1645","1545","1489"],"transfer_routes":["3058","3032"],"related_routes":["3060"]
    },"1549":{"name":"Golf Course @ Homestead Trail","desc":"7409 GOLF COURSE RD NW \u0026 HOMESTEAD TRL NW","coordinates":[-106.6872,35.1673],"related_stops":["1549","1485"],"transfer_routes":["3058","3032"],"related_routes":[]
    },"1551":{"name":"Golf Course @ Homestead Cir South","desc":"6929 GOLF COURSE RD NW \u0026 HOMESTEAD CIR NW","coordinates":[-106.6896,35.1621],"related_stops":["1551","1483"],"transfer_routes":["3058","3032"],"related_routes":[]
    },"1553":{"name":"Golf Course @ Taylor Ranch","desc":"6429 GOLF COURSE RD NW","coordinates":[-106.6917,35.16],"related_stops":["1553","1481"],"transfer_routes":["3058","3032"],"related_routes":[]
    },"1555":{"name":"Taylor Ranch @ Kachina","desc":"6095 TAYLOR RANCH DR NW","coordinates":[-106.6945,35.1552],"related_stops":["1555","1479"],"transfer_routes":["3058","3032"],"related_routes":["3034"]
    },"1557":{"name":"Ladera @ St Joseph","desc":"LADERA \u0026 ST JOSEPH AVE","coordinates":[-106.7098,35.1268],"related_stops":["1557","1475"],"transfer_routes":["3058"],"related_routes":[]
    },"1559":{"name":"Ladera @ Sequoia","desc":"LADERA \u0026 SEQUOIA","coordinates":[-106.7083,35.1211],"related_stops":["1559","7704","7702","1473"],"transfer_routes":["3058"],"related_routes":[]
    },"1561":{"name":"Ladera @ Redlands","desc":"LADERA \u0026 REDLANDS","coordinates":[-106.7078,35.1185],"related_stops":["1561","1471"],"transfer_routes":["3058"],"related_routes":[]
    },"1563":{"name":"Ladera @ Los Tretos","desc":"LADERA \u0026 LOS TRETOS","coordinates":[-106.7092,35.1161],"related_stops":["1563","1469"],"transfer_routes":["3058"],"related_routes":[]
    },"1565":{"name":"Ladera @ Flor Silvestre","desc":"LADERA \u0026 FLOR SILVESTRE","coordinates":[-106.7113,35.1149],"related_stops":["1565","1467"],"transfer_routes":["3058"],"related_routes":[]
    },"1567":{"name":"Ladera @ Ouray","desc":"LADERA \u0026 OURAY","coordinates":[-106.7152,35.1128],"related_stops":["1567","1465"],"transfer_routes":["3058"],"related_routes":[]
    },"1568":{"name":"Ladera @ Knightsway","desc":"7403 LADERA DR NW \u0026 KNIGHTSWAY AVE NW","coordinates":[-106.7205,35.1092],"related_stops":["1293","1568"],"transfer_routes":["3058"],"related_routes":[]
    },"1569":{"name":"Ladera @ Lakewood","desc":"LAKEWOOD AVE NW \u0026 LADERA DR NW","coordinates":[-106.7227,35.1077],"related_stops":["1569","1289"],"transfer_routes":["3058"],"related_routes":[]
    },"1571":{"name":"Lomas @ 5th","desc":"410 LOMAS BLVD NW","coordinates":[-106.6509,35.0911],"related_stops":["7206","5305","1571","6988","7176"],"transfer_routes":["3057","3043","3044","3058","3059","3060"],"related_routes":["3025","3056"]
    },"1573":{"name":"2nd @ Lomas","desc":"607 2ND ST NW","coordinates":[-106.6482,35.09],"related_stops":["3517","1573","6968"],"transfer_routes":["3045","3051","3053","3057","3025","3026","3028","3043","3044","3058","3059","3060"],"related_routes":[]
    },"1575":{"name":"2nd @ Marquette","desc":"385 2ND ST NW \u0026 MARQUETTE AVE NW","coordinates":[-106.6487,35.0877],"related_stops":["1575","6966"],"transfer_routes":["3045","3051","3053","3057","3025","3026","3027","3028","3033","3043","3044","3046","3058","3059","3060"],"related_routes":[]
    },"1577":{"name":"Martin Luther King @ Broadway","desc":"302 MARTIN LUTHER KING AVE NE \u0026 GRAND AVE NE","coordinates":[-106.6438,35.0861],"related_stops":["1577","7678","1597","6322","3757"],"transfer_routes":["3027","3046","3058"],"related_routes":["3033"]
    },"1579":{"name":"Martin Luther King @ Elm","desc":"720 MARTIN LUTHER KING AVE NE \u0026 ELM ST NE","coordinates":[-106.6384,35.0853],"related_stops":["1595","1579"],"transfer_routes":["3027","3046","3058"],"related_routes":[]
    },"1583":{"name":"University @ Martin Luther King","desc":"412 UNIVERSITY BLVD NE","coordinates":[-106.6258,35.0845],"related_stops":["1583","1593","3773","7408","7410","6332"],"transfer_routes":["3027","3033","3058"],"related_routes":["3046"]
    },"1585":{"name":"University @ Las Lomas","desc":"LAS LOMAS RD NE \u0026 UNIVERSITY BLVD NE","coordinates":[-106.6254,35.0867],"related_stops":["4067","1585"],"transfer_routes":["3027","3033","3058"],"related_routes":[]
    },"1587":{"name":"Lomas @ University","desc":"1808 LOMAS BLVD NE \u0026 BUENA VISTA DR NE","coordinates":[-106.6238,35.0895],"related_stops":["4063","4065","7238","6330","6328","5079","1587","5662","7283"],"transfer_routes":["3045","3026","3027","3058"],"related_routes":["3033"]
    },"1589":{"name":"Lomas @ Campus (UNM Hospital)","desc":"2000 LOMAS BLVD NE \u0026 STANFORD DR NE","coordinates":[-106.6184,35.0873],"related_stops":["3853","7130","7001","1589"],"transfer_routes":["3058"],"related_routes":["3045","3026","3027","3056"]
    },"1591":{"name":"Yale @ Las Lomas (Dane Smith Hall)","desc":"YALE \u0026 LOS LOMAS","coordinates":[-106.6222,35.0858],"related_stops":["1591"],"transfer_routes":["3058"],"related_routes":[]
    },"1593":{"name":"Martin Luther King @ University","desc":"1625 MARTIN LUTHER KING AVE NE","coordinates":[-106.6269,35.0842],"related_stops":["1583","1593","3773","7408","7410","6332"],"transfer_routes":["3027","3046","3058"],"related_routes":["3033"]
    },"1595":{"name":"Martin Luther King @ Elm","desc":"805 MARTIN LUTHER KING AVE NE \u0026 ELM ST NE","coordinates":[-106.6378,35.0855],"related_stops":["1595","1579"],"transfer_routes":["3027","3046"],"related_routes":["3058"]
    },"1597":{"name":"Martin Luther King @ Broadway","desc":"303 MARTIN LUTHER KING AVE NE \u0026 GRAND AVE NE","coordinates":[-106.6438,35.0864],"related_stops":["1577","7678","1597","6322","3757"],"transfer_routes":["3027","3046","3058"],"related_routes":["3033"]
    },"1599":{"name":"Marquette @ 4th","desc":"MARQUETTE \u0026 4 TH","coordinates":[-106.6504,35.0882],"related_stops":["1599"],"transfer_routes":["3058"],"related_routes":[]
    },"1645":{"name":"Calle Nortena @ River Hill","desc":"CALLE NORTENA \u0026 RIVER HILL","coordinates":[-106.6894,35.1748],"related_stops":["1683","1645","1545","1489"],"transfer_routes":["3060"],"related_routes":["3058","3032"]
    },"1683":{"name":"Calle Nortena @ Golf Course","desc":"CALLE NORTENA \u0026 GOLF COURSE","coordinates":[-106.6884,35.1755],"related_stops":["1683","1645","1545","1489"],"transfer_routes":["3060"],"related_routes":["3058","3032"]
    },"1715":{"name":"Unser @ Western Trail","desc":"4441 UNSER BLVD NW","coordinates":[-106.7149,35.1349],"related_stops":["1308","1715"],"transfer_routes":["3060"],"related_routes":["3058"]
    },"1727":{"name":"6th @ McKnight","desc":"2007 6TH ST NW \u0026 MCKNIGHT AVE NW","coordinates":[-106.6507,35.1049],"related_stops":["1727"],"transfer_routes":["3057","3058","3059","3060"],"related_routes":[]
    },"1729":{"name":"2nd @ Copper","desc":"209 2ND ST NW \u0026 COPPER AVE NW","coordinates":[-106.6491,35.0855],"related_stops":["1729","4705","7022"],"transfer_routes":["3045","3051","3053","3057","3025","3026","3027","3028","3033","3043","3044","3046","3059","3060"],"related_routes":["3052","3058","3054","3055"]
    },"1745":{"name":"5th @ Haines","desc":"1812 5TH ST NW \u0026 HAINES AVE NW","coordinates":[-106.6492,35.1029],"related_stops":["5121","2477","1745"],"transfer_routes":["3057","3058","3059","3060"],"related_routes":["3053","3025","3028"]
    },"2477":{"name":"2nd @ Haines","desc":"2 ND ST \u0026 HAINES","coordinates":[-106.6469,35.1031],"related_stops":["5121","2477","1745"],"transfer_routes":["3053","3028"],"related_routes":["3057","3025","3058","3059","3060"]
    },"3125":{"name":"Montano @ Montano Plaza","desc":"4621 MONTANO RD NW \u0026 MONTANO PLAZA DR NW","coordinates":[-106.6899,35.1516],"related_stops":["3131","3129","1443","1477","3125"],"transfer_routes":["3032","3034"],"related_routes":["3058"]
    },"3129":{"name":"Montano @ Taylor Ranch","desc":"4774 MONTANO RD NW","coordinates":[-106.6933,35.1523],"related_stops":["3131","3129","1443","1477","3125"],"transfer_routes":["3032"],"related_routes":["3058","3034"]
    },"3131":{"name":"Montano @ Taylor Ranch","desc":"4646 MONTANO RD NW","coordinates":[-106.6906,35.1516],"related_stops":["3131","3129","1443","1477","3125"],"transfer_routes":["3032"],"related_routes":["3058","3034"]
    },"3185":{"name":"Coal @ Hazeldine","desc":"COAL AVE SE \u0026 HAZELDINE AVE SE","coordinates":[-106.6281,35.0764],"related_stops":["6438","3491","7428","6440","6338","3185"],"transfer_routes":["3062"],"related_routes":["3033","3058","3037"]
    },"3491":{"name":"Coal @ University","desc":"1818 COAL AVE SE","coordinates":[-106.6258,35.0749],"related_stops":["6438","3491","7428","6440","6338","3185"],"transfer_routes":["3062"],"related_routes":["3033","3058","3037"]
    },"3517":{"name":"Lomas @ 1st","desc":"108 LOMAS BLVD NW \u0026 1ST ST NW","coordinates":[-106.6472,35.0907],"related_stops":["3517","1573","6968"],"transfer_routes":["3051","3026"],"related_routes":["3045","3053","3057","3025","3028","3043","3044","3058","3059","3060"]
    },"3757":{"name":"Tijeras @ Broadway","desc":"MARTIN LUTHER KING AVE NE","coordinates":[-106.6449,35.0859],"related_stops":["1577","7678","1597","6322","3757"],"transfer_routes":["3027","3046","3058"],"related_routes":["3033"]
    },"3765":{"name":"Mulberry @ Martin Luther King","desc":"409 MULBERRY ST NE \u0026 MARTIN LUTHER KING AVE NE","coordinates":[-106.6344,35.0853],"related_stops":["3841","3843","5772","3765"],"transfer_routes":["3046"],"related_routes":["3027","3058"]
    },"3773":{"name":"Martin Luther King @ University","desc":"1624 MARTIN LUTHER KING AVE NE \u0026 GRAND AVE NE","coordinates":[-106.6266,35.0841],"related_stops":["1583","1593","3773","7408","7410","6332"],"transfer_routes":["3027","3046"],"related_routes":["3033","3058"]
    },"3841":{"name":"Martin Luther King @ Cedar","desc":"1117 MARTIN LUTHER KING AVE NE \u0026 CEDAR ST NE","coordinates":[-106.6335,35.0849],"related_stops":["3841","3843","5772","3765"],"transfer_routes":["3027","3046","3058"],"related_routes":[]
    },"3843":{"name":"Martin Luther King @ Oak","desc":"1007 MARTIN LUTHER KING AVE NE \u0026 OAK ST NE","coordinates":[-106.6354,35.0852],"related_stops":["3841","3843","5772","3765"],"transfer_routes":["3027","3046"],"related_routes":["3058"]
    },"3845":{"name":"Martin Luther King @ High","desc":"MARTIN LUTHER KING AVE NE \u0026 HIGH ST NE","coordinates":[-106.6397,35.0857],"related_stops":["3845"],"transfer_routes":["3027","3046","3058"],"related_routes":[]
    },"3853":{"name":"Lomas @ UNM Hospital","desc":"2242 LOMAS BLVD NE \u0026 STANFORD DR NE","coordinates":[-106.6178,35.0873],"related_stops":["3853","7130","7001","1589"],"transfer_routes":["3045","3026","3027"],"related_routes":["3058","3056"]
    },"4063":{"name":"Lomas @ Yale","desc":"1911 LOMAS BLVD NE \u0026 YALE BLVD NE","coordinates":[-106.6216,35.0887],"related_stops":["4063","4065","7238","6330","6328","5079","1587","5662","7283"],"transfer_routes":["3045","3026","3027"],"related_routes":["3033","3058"]
    },"4065":{"name":"Lomas @ Yale","desc":"1813 LOMAS BLVD NE","coordinates":[-106.6234,35.0896],"related_stops":["4063","4065","7238","6330","6328","5079","1587","5662","7283"],"transfer_routes":["3045","3026","3027"],"related_routes":["3033","3058"]
    },"4067":{"name":"University @ Las Lomas","desc":"709 UNIVERSITY BLVD NE \u0026 LAS LOMAS RD NE","coordinates":[-106.6257,35.0871],"related_stops":["4067","1585"],"transfer_routes":["3027","3033"],"related_routes":["3058"]
    },"4455":{"name":"Central @ University","desc":"1716 CENTRAL AVE E \u0026 UNIVERSITY BLVD SE","coordinates":[-106.6271,35.0813],"related_stops":["4681","4683","6444","6446","4455","6334","4457"],"transfer_routes":["3052"],"related_routes":["3033","3058"]
    },"4457":{"name":"Central @ Mesa","desc":"103 MESA ST SE \u0026 CENTRAL AVE E","coordinates":[-106.6257,35.0811],"related_stops":["4681","4683","6444","6446","4455","6334","4457"],"transfer_routes":["3052"],"related_routes":["3033","3058"]
    },"4681":{"name":"Central @ University","desc":"1903 CENTRAL AVE E \u0026 MESA ST SE","coordinates":[-106.6254,35.0813],"related_stops":["4681","4683","6444","6446","4455","6334","4457"],"transfer_routes":["3052"],"related_routes":["3033","3058"]
    },"4683":{"name":"Central @ University","desc":"1703 CENTRAL AVE E \u0026 PINE ST NE","coordinates":[-106.6273,35.0815],"related_stops":["4681","4683","6444","6446","4455","6334","4457"],"transfer_routes":["3052"],"related_routes":["3033","3058"]
    },"4705":{"name":"Copper @ 2nd","desc":"211 COPPER AVE NW \u0026 2ND ST NW","coordinates":[-106.6495,35.0854],"related_stops":["1729","4705","7022"],"transfer_routes":["3052","3054","3055"],"related_routes":["3045","3051","3053","3057","3025","3026","3027","3028","3033","3043","3044","3046","3058","3059","3060"]
    },"5079":{"name":"Lomas @ University","desc":"1547 LOMAS BLVD NE","coordinates":[-106.6259,35.0907],"related_stops":["4063","4065","7238","6330","6328","5079","1587","5662","7283"],"transfer_routes":["3045","3026"],"related_routes":["3027","3033","3058"]
    },"5121":{"name":"4th @ Haines","desc":"1820 4TH ST NW \u0026 HAINES AVE NW","coordinates":[-106.648,35.1029],"related_stops":["5121","2477","1745"],"transfer_routes":["3025"],"related_routes":["3053","3057","3028","3058","3059","3060"]
    },"5305":{"name":"Lomas @ 4th","desc":"314 LOMAS BLVD NW","coordinates":[-106.6498,35.091],"related_stops":["7206","5305","1571","6988","7176"],"transfer_routes":["3025","3043","3044"],"related_routes":["3057","3058","3059","3060","3056"]
    },"5646":{"name":"University @ Isotopes Stadium","desc":"1112 UNIVERSITY BLVD SE \u0026 SHIELDS  SE","coordinates":[-106.6307,35.0701],"related_stops":["5646","6344"],"transfer_routes":["3033","3058","3037"],"related_routes":[]
    },"5654":{"name":"Golf Course @ Butterfield","desc":"7529 GOLF COURSE RD NW \u0026 BUTTERFIELD TRL NW","coordinates":[-106.6872,35.1706],"related_stops":["5654","1487"],"transfer_routes":["3058","3032"],"related_routes":[]
    },"5662":{"name":"Lomas @ University","desc":"1560 LOMAS BLVD NE \u0026 UNIVERSITY BLVD NE","coordinates":[-106.6258,35.0904],"related_stops":["4063","4065","7238","6330","6328","5079","1587","5662","7283"],"transfer_routes":["3045","3026"],"related_routes":["3027","3033","3058"]
    },"5772":{"name":"Martin Luther King @ Cedar","desc":"1116 MARTIN LUTHER KING AVE NE","coordinates":[-106.6337,35.0849],"related_stops":["3841","3843","5772","3765"],"transfer_routes":["3027","3046","3058"],"related_routes":[]
    },"6322":{"name":"Broadway @ Martin luther King","desc":"408 BROADWAY BLVD NE \u0026 MARQUETTE AVE NE","coordinates":[-106.6439,35.0869],"related_stops":["1577","7678","1597","6322","3757"],"transfer_routes":["3033"],"related_routes":["3027","3046","3058"]
    },"6328":{"name":"University @ Lomas","desc":"1011 UNIVERSITY BLVD NE","coordinates":[-106.6254,35.0907],"related_stops":["4063","4065","7238","6330","6328","5079","1587","5662","7283"],"transfer_routes":["3033"],"related_routes":["3045","3026","3027","3058"]
    },"6330":{"name":"University @ Lomas","desc":"937 UNIVERSITY BLVD NE","coordinates":[-106.6255,35.0899],"related_stops":["4063","4065","7238","6330","6328","5079","1587","5662","7283"],"transfer_routes":["3027","3033"],"related_routes":["3045","3026","3058"]
    },"6332":{"name":"University @ Martin Luther King","desc":"305 UNIVERSITY BLVD NE","coordinates":[-106.6265,35.0837],"related_stops":["1583","1593","3773","7408","7410","6332"],"transfer_routes":["3033","3058"],"related_routes":["3027","3046"]
    },"6334":{"name":"University @ Central","desc":"105 UNIVERSITY BLVD NE \u0026 CENTRAL AVE E","coordinates":[-106.6269,35.0817],"related_stops":["4681","4683","6444","6446","4455","6334","4457"],"transfer_routes":["3033","3058"],"related_routes":["3052"]
    },"6336":{"name":"University @ Lead","desc":"303 UNIVERSITY BLVD SE \u0026 SILVER AVE SE","coordinates":[-106.6274,35.0791],"related_stops":["6442","6336"],"transfer_routes":["3033","3058"],"related_routes":[]
    },"6338":{"name":"University @ Coal","desc":"1715 COAL PL SE \u0026 UNIVERSITY BLVD SE","coordinates":[-106.6277,35.0776],"related_stops":["6438","3491","7428","6440","6338","3185"],"transfer_routes":["3033"],"related_routes":["3058","3062","3037"]
    },"6344":{"name":"University @ Shields-Research Park","desc":"","coordinates":[-106.6311,35.0706],"related_stops":["5646","6344"],"transfer_routes":["3033","3058","3037"],"related_routes":[]
    },"6436":{"name":"University @ Basehart (C.N.M.)","desc":"720 UNIVERSITY BLVD SE","coordinates":[-106.6295,35.0733],"related_stops":["7426","6436"],"transfer_routes":["3033","3058","3037"],"related_routes":[]
    },"6438":{"name":"University @ Coal","desc":"UNIVERSITY BLVD SE","coordinates":[-106.6274,35.076],"related_stops":["6438","3491","7428","6440","6338","3185"],"transfer_routes":["3033","3037"],"related_routes":["3058","3062"]
    },"6440":{"name":"University @ Coal Place","desc":"1804 COAL PL SE \u0026 UNIVERSITY BLVD SE","coordinates":[-106.6274,35.0773],"related_stops":["6438","3491","7428","6440","6338","3185"],"transfer_routes":["3033","3058"],"related_routes":["3062","3037"]
    },"6442":{"name":"University @ Silver","desc":"216 UNIVERSITY BLVD SE \u0026 SILVER AVE SE","coordinates":[-106.627,35.0796],"related_stops":["6442","6336"],"transfer_routes":["3033"],"related_routes":["3058"]
    },"6444":{"name":"University @ Central","desc":"104 UNIVERSITY BLVD SE \u0026 CENTRAL AVE E","coordinates":[-106.6267,35.081],"related_stops":["4681","4683","6444","6446","4455","6334","4457"],"transfer_routes":["3033"],"related_routes":["3052","3058"]
    },"6446":{"name":"University @ Central","desc":"108 UNIVERSITY BLVD NE \u0026 CENTRAL AVE E","coordinates":[-106.6266,35.0817],"related_stops":["4681","4683","6444","6446","4455","6334","4457"],"transfer_routes":["3033","3058"],"related_routes":["3052"]
    },"6966":{"name":"2nd @ Marquette","desc":"406 2ND ST NW \u0026 MARQUETTE AVE NW","coordinates":[-106.6485,35.0877],"related_stops":["1575","6966"],"transfer_routes":["3045","3051","3057","3025","3026","3028","3043","3059","3060"],"related_routes":["3053","3027","3033","3044","3046","3058"]
    },"6968":{"name":"2nd @ Roma","desc":"2ND ST NW","coordinates":[-106.6481,35.0901],"related_stops":["3517","1573","6968"],"transfer_routes":["3045","3051","3053","3057","3025","3026","3028","3043","3059","3060"],"related_routes":["3044","3058"]
    },"6988":{"name":"5th @ Fruit","desc":"604 5TH ST NW \u0026 FRUIT AVE NW","coordinates":[-106.6516,35.0904],"related_stops":["7206","5305","1571","6988","7176"],"transfer_routes":["3044","3058"],"related_routes":["3057","3025","3043","3059","3060","3056"]
    },"7001":{"name":"Lomas @ Campus (UNMH)","desc":"2274 LOMAS BLVD NE","coordinates":[-106.6176,35.0873],"related_stops":["3853","7130","7001","1589"],"transfer_routes":["3056"],"related_routes":["3045","3026","3027","3058"]
    },"7022":{"name":"Tijeras @ 2nd","desc":"104 TIJERAS AVE NW","coordinates":[-106.6483,35.0862],"related_stops":["1729","4705","7022"],"transfer_routes":["3027","3033","3046","3058"],"related_routes":["3045","3051","3053","3057","3025","3026","3028","3043","3044","3052","3059","3060","3054","3055"]
    },"7025":{"name":"NW Transit Center (Bay A)","desc":"","coordinates":[-106.6602,35.2067],"related_stops":["7028","7025","7030"],"transfer_routes":["3056"],"related_routes":["3058","3060","3061","3063","3031","3032","3040","3050"]
    },"7028":{"name":"NW Transit Center (Bay B)","desc":"","coordinates":[-106.6602,35.2065],"related_stops":["7028","7025","7030"],"transfer_routes":["3061","3063","3031","3040","3050"],"related_routes":["3058","3060","3032","3056"]
    },"7030":{"name":"NW Transit Center (Bay C)","desc":"","coordinates":[-106.6602,35.2062],"related_stops":["7028","7025","7030"],"transfer_routes":["3058","3060","3032"],"related_routes":["3061","3063","3031","3040","3050","3056"]
    },"7130":{"name":"Lomas @ UNM Hospital","desc":"2247 LOMAS BLVD NE \u0026 STANFORD DR NE","coordinates":[-106.6178,35.0876],"related_stops":["3853","7130","7001","1589"],"transfer_routes":["3045","3026","3027"],"related_routes":["3058","3056"]
    },"7176":{"name":"Lomas @ 4th","desc":"406 LOMAS BLVD NW \u0026 4TH ST NW","coordinates":[-106.6507,35.0911],"related_stops":["7206","5305","1571","6988","7176"],"transfer_routes":["3056"],"related_routes":["3057","3025","3043","3044","3058","3059","3060"]
    },"7206":{"name":"Lomas @ 4th","desc":"Lomas \u0026 5th Street","coordinates":[-106.6499,35.0912],"related_stops":["7206","5305","1571","6988","7176"],"transfer_routes":["3057","3025","3043","3059","3060","3056"],"related_routes":["3044","3058"]
    },"7210":{"name":"Golfcourse @ Ellison","desc":"10502 GOLF COURSE RD NW","coordinates":[-106.6751,35.2063],"related_stops":["1507","1529","7210"],"transfer_routes":["3061"],"related_routes":["3058","3031","3032"]
    },"7238":{"name":"Lomas @ Yale","desc":"1920 LOMAS BLVD NE","coordinates":[-106.6214,35.0884],"related_stops":["4063","4065","7238","6330","6328","5079","1587","5662","7283"],"transfer_routes":["3045","3026","3027"],"related_routes":["3033","3058"]
    },"7283":{"name":"University @ Lomas","desc":"1010 UNIVERSITY BLVD NE \u0026 LOMAS BLVD NE","coordinates":[-106.6251,35.0907],"related_stops":["4063","4065","7238","6330","6328","5079","1587","5662","7283"],"transfer_routes":["3033"],"related_routes":["3045","3026","3027","3058"]
    },"7290":{"name":"5th @ Slate","desc":"806 5TH ST NW \u0026 SLATE AVE NW","coordinates":[-106.6513,35.0924],"related_stops":["7290"],"transfer_routes":["3057","3058"],"related_routes":[]
    },"7366":{"name":"Golfcourse @ Jill Patricia","desc":"9363 GOLF COURSE RD NW","coordinates":[-106.6851,35.1871],"related_stops":["7366","1495"],"transfer_routes":["3058","3032"],"related_routes":[]
    },"7408":{"name":"Redondo @ UNM Engineering Bldg.","desc":"303 REDONDO WEST DR NE","coordinates":[-106.6261,35.0834],"related_stops":["1583","1593","3773","7408","7410","6332"],"transfer_routes":["3046"],"related_routes":["3027","3033","3058"]
    },"7410":{"name":"Redondo @ UNM Engineering Bldg","desc":"302 REDONDO WEST DR NE","coordinates":[-106.626,35.0834],"related_stops":["1583","1593","3773","7408","7410","6332"],"transfer_routes":["3046"],"related_routes":["3027","3033","3058"]
    },"7426":{"name":"University @ Basehart","desc":"725 UNIVERSITY BLVD SE \u0026 BASEHART  SE","coordinates":[-106.6298,35.0734],"related_stops":["7426","6436"],"transfer_routes":["3033"],"related_routes":["3058","3037"]
    },"7428":{"name":"University @ Coal","desc":"717 UNIVERSITY BLVD SE \u0026 COAL AVE SE","coordinates":[-106.628,35.0755],"related_stops":["6438","3491","7428","6440","6338","3185"],"transfer_routes":["3033","3037"],"related_routes":["3058","3062"]
    },"7456":{"name":"Golf Course @ Paseo Del Norte","desc":"8457 GOLF COURSE RD NW","coordinates":[-106.6879,35.1804],"related_stops":["1543","7458","7456","1491"],"transfer_routes":["3058","3032"],"related_routes":[]
    },"7458":{"name":"Golf Course @ Paseo Del Norte","desc":"8448 GOLF COURSE RD NW","coordinates":[-106.6876,35.1804],"related_stops":["1543","7458","7456","1491"],"transfer_routes":["3058","3032"],"related_routes":[]
    },"7678":{"name":"Broadway @ Grand","desc":"409 BROADWAY BLVD NE \u0026 MARQUETTE AVE NE","coordinates":[-106.6441,35.087],"related_stops":["1577","7678","1597","6322","3757"],"transfer_routes":["3033"],"related_routes":["3027","3046","3058"]
    },"7702":{"name":"Ladera @ Sequoia","desc":"3555 LADERA DR NW","coordinates":[-106.7093,35.1232],"related_stops":["1559","7704","7702","1473"],"transfer_routes":["3058"],"related_routes":[]
    },"7704":{"name":"Ladera @ Sequoia","desc":"","coordinates":[-106.7093,35.1237],"related_stops":["1559","7704","7702","1473"],"transfer_routes":["3058"],"related_routes":[]
    }
  },
  "trip_data": {
    "shapes": {
      "29524": {
        "bearing": 350.01,"centroid":[-106.6771,35.133],
        "bounds": [[-106.7299,35.0701],[0.0,35.2071]
        ],"coordinates":[[-106.6308980000468,35.0701],[-106.63078100004678,35.071882],[-106.62755200004611,35.075939],[-106.62753300004611,35.077403],[-106.62655600004592,35.082919],[-106.62644000004592,35.08346],[-106.62611700004584,35.084112],[-106.6259000000458,35.084978],[-106.6253810000457,35.087755],[-106.62525500004568,35.0903],[-106.61998900004461,35.08788],[-106.61816400004423,35.087423],[-106.61820400004426,35.086962],[-106.62204700004501,35.086803],[-106.62204300004502,35.085853],[-106.62204700004501,35.086803],[-106.62410900004545,35.086709],[-106.62553500004573,35.08689],[-106.62570200004578,35.08592],[-106.6259000000458,35.084978],[-106.62611700004584,35.08411],[-106.62628300004589,35.084118],[-106.62661500004594,35.084152],[-106.62678200004599,35.084155],[-106.62744700004612,35.084103],[-106.63625200004797,35.085217],[-106.6405250000489,35.085587],[-106.64578300005005,35.086723],[-106.64838900005063,35.087862],[-106.65213100005148,35.088315],[-106.64903000005084,35.104378],[-106.64941800005093,35.10495],[-106.6502040000511,35.10531],[-106.65039300005114,35.105599],[-106.65033200005115,35.10661],[-106.65005400005107,35.106961],[-106.65098600005129,35.10712],[-106.65296100005175,35.107149],[-106.65904300005313,35.106279],[-106.66362600005421,35.106436],[-106.67256100005635,35.105082],[-106.67903100005795,35.105379],[-106.69860100006302,35.106996],[-106.70201300006394,35.107036],[-106.70469000006467,35.106604],[-106.70812200006561,35.105314],[-106.72341800006993,35.097664],[-106.72463800007029,35.097271],[-106.72820400007134,35.096729],[-106.7293810000717,35.097213],[-106.72988400007185,35.098115],[-106.72994100007189,35.104168],[-106.72866100007151,35.104298],[-106.72799600007131,35.104525],[-106.72219000006962,35.107688],[-106.72069400006919,35.108704],[-106.7193230000688,35.110371],[-106.70923800006597,35.115841],[-106.7082820000657,35.116579],[-106.70778900006557,35.11737],[-106.70761200006552,35.118066],[-106.70758100006552,35.11846],[-106.70758400006551,35.119127],[-106.70837900006575,35.121966],[-106.70903100006593,35.123093],[-106.71011300006624,35.124231],[-106.71044900006633,35.125141],[-106.7102780000663,35.125852],[-106.70936100006604,35.12692],[-106.70867500006585,35.127297],[-106.70654300006525,35.127693],[-106.70841600006581,35.1348],[-106.71237900006692,35.134162],[-106.71299800006709,35.134266],[-106.71399400006737,35.135027],[-106.7105570000664,35.136527],[-106.70985400006623,35.137388],[-106.70940300006609,35.138503],[-106.71000700006628,35.141153],[-106.71268200006705,35.145386],[-106.7099920000663,35.145449],[-106.71002900006634,35.152842],[-106.70554400006509,35.15283],[-106.70187600006409,35.152507],[-106.69377000006192,35.15253],[-106.69375600006191,35.152953],[-106.69375900006192,35.153479],[-106.69418600006203,35.154539],[-106.69424600006207,35.155713],[-106.6929140000617,35.157606],[-106.69271400006166,35.158967],[-106.69003500006096,35.161457],[-106.68748900006032,35.164209],[-106.68693700006018,35.165089],[-106.68678500006014,35.165748],[-106.68722900006027,35.16957],[-106.6865310000601,35.172242],[-106.68653700006011,35.173504],[-106.68676300006017,35.174144],[-106.6876410000604,35.175509],[-106.68773400006043,35.176499],[-106.68773500006044,35.179807],[-106.68774700006045,35.180527],[-106.68684700006023,35.183531],[-106.68515000005979,35.186461],[-106.68474300005971,35.188634],[-106.68442900005962,35.189354],[-106.68411500005955,35.189717],[-106.68175200005896,35.190914],[-106.68113300005881,35.191378],[-106.67973100005845,35.193985],[-106.67972200005846,35.195131],[-106.68093100005878,35.19741],[-106.68102400005878,35.198015],[-106.68087800005877,35.19865],[-106.67919600005835,35.201865],[-106.67784700005802,35.203256],[-106.67594400005756,35.204357],[-106.67512800005736,35.205746],[-106.67398200005707,35.205719],[-106.67173600005651,35.206139],[-106.6704620000562,35.206079],[-106.66885700005582,35.205737],[-106.66618900005518,35.206126],[-106.66181800005413,35.205809],[-106.6616480000541,35.20711],[-106.66021700005376,35.207013],[-106.66023000005376,35.206298]],
        "distances": [0.0,0.2005,0.7408,0.9049,1.528,1.59,1.6685,1.7674,2.0818,2.3661,2.913,3.0875,3.1386,3.4862,3.5922,3.4862,3.8856,1.9838,1.8739,1.7674,4.3314,4.3464,4.3767,4.3927,4.4532,5.2589,5.6481,6.1398,6.4094,6.7522,8.5716,8.6454,8.728,8.7645,8.8783,8.9255,9.0112,9.1905,9.7501,10.1648,10.9869,11.5733,13.3513,13.6612,13.9085,14.2512,15.8772,15.996,16.3244,16.4462,16.5572,17.2343,17.3515,17.4169,18.0494,18.2265,18.4518,19.5505,19.6703,19.7693,19.849,19.8931,19.9681,20.2934,20.4336,20.5941,20.7009,20.7831,20.929,21.0044,21.2017,22.0149,22.3798,22.4372,22.5631,22.9178,23.0342,23.1665,23.4686,24.0005,24.2437,25.0708,25.4758,25.8097,26.5418,26.5888,26.6478,26.7732,26.9049,27.1491,27.303,27.6725,28.0569,28.1673,28.2417,28.6721,28.9775,29.1185,29.1932,29.365,29.4763,29.8463,29.9273,30.2734,30.6363,30.8834,30.9685,31.0182,31.2698,31.3465,31.6647,31.7949,32.072,32.1406,32.2128,32.6041,32.8027,33.0152,33.1887,33.2917,33.5003,33.6155,33.7654,34.0119,34.4076,34.5544,34.6849,34.7671]
      },
      "2880d": {
        "bearing": 170.01,"centroid":[-106.6805,35.1287],
        "bounds": [[-106.7317,35.0701],[0.0,35.2072]
        ],"coordinates":[[-106.66023000005376,35.206298],[-106.66019800005375,35.206093],[-106.65948500005359,35.206081],[-106.65934700005356,35.206984],[-106.6616350000541,35.207182],[-106.66181800005413,35.205809],[-106.66618900005518,35.206126],[-106.66885700005582,35.205737],[-106.6704620000562,35.206079],[-106.67173600005651,35.206139],[-106.67398200005707,35.205719],[-106.67512800005736,35.205746],[-106.67594400005756,35.204357],[-106.67784700005802,35.203256],[-106.67919600005835,35.201865],[-106.68087800005877,35.19865],[-106.68102400005878,35.198015],[-106.68093100005878,35.19741],[-106.67972200005846,35.195131],[-106.67973100005845,35.193985],[-106.68113300005881,35.191378],[-106.68175200005896,35.190914],[-106.68411500005955,35.189717],[-106.68442900005962,35.189354],[-106.68474300005971,35.188634],[-106.68515000005979,35.186461],[-106.68684700006023,35.183531],[-106.68774700006045,35.180527],[-106.6876410000604,35.175509],[-106.68676300006017,35.174144],[-106.68653700006011,35.173504],[-106.6865310000601,35.172242],[-106.68722900006027,35.16957],[-106.68678500006014,35.165748],[-106.68693700006018,35.165089],[-106.68748900006032,35.164209],[-106.69003500006096,35.161457],[-106.69271400006166,35.158967],[-106.6929140000617,35.157606],[-106.69424600006207,35.155713],[-106.69418600006203,35.154539],[-106.69375900006192,35.153479],[-106.69377000006192,35.15253],[-106.70187600006409,35.152507],[-106.70554400006509,35.15283],[-106.71002900006634,35.152842],[-106.7099920000663,35.145449],[-106.71268200006705,35.145386],[-106.71000700006628,35.141153],[-106.70940300006609,35.138503],[-106.70985400006623,35.137388],[-106.7105570000664,35.136527],[-106.71399400006737,35.135027],[-106.71299800006709,35.134266],[-106.71237900006692,35.134162],[-106.70841600006581,35.1348],[-106.70654300006525,35.127693],[-106.70867500006585,35.127297],[-106.70936100006604,35.12692],[-106.7102780000663,35.125852],[-106.71044900006633,35.125141],[-106.71011300006624,35.124231],[-106.70903100006593,35.123093],[-106.70837900006575,35.121966],[-106.70758400006551,35.119127],[-106.70778900006557,35.11737],[-106.7082820000657,35.116579],[-106.70923800006597,35.115841],[-106.7193230000688,35.110371],[-106.72069400006919,35.108704],[-106.72219000006962,35.107688],[-106.72799600007131,35.104525],[-106.72866100007151,35.104298],[-106.72994100007189,35.104168],[-106.72987600007185,35.098796],[-106.72992100007185,35.096313],[-106.72990700007183,35.093908],[-106.72990700007183,35.092816],[-106.72990600007184,35.092815],[-106.73015800007191,35.092238],[-106.73076000007208,35.091827],[-106.73150800007231,35.092],[-106.73174800007237,35.09238],[-106.73172600007237,35.092663],[-106.73128400007225,35.093195],[-106.72990700007183,35.093906],[-106.7294960000717,35.094114],[-106.72802400007129,35.094871],[-106.72591100007065,35.09592],[-106.72210100006954,35.097999],[-106.7163500000679,35.100793],[-106.70812700006562,35.105093],[-106.70644500006516,35.105851],[-106.7032920000643,35.106769],[-106.70127700006375,35.106923],[-106.698563000063,35.106749],[-106.68511300005949,35.105597],[-106.67379400005666,35.104834],[-106.66926300005555,35.105192],[-106.66670400005493,35.105801],[-106.66375800005424,35.106171],[-106.65814700005292,35.106108],[-106.65396300005197,35.106794],[-106.65215400005155,35.106709],[-106.65070600005123,35.106262],[-106.65065800005121,35.104383],[-106.65042900005115,35.103564],[-106.65275900005165,35.091492],[-106.64796400005055,35.090885],[-106.64881400005073,35.086461],[-106.64833100005062,35.086262],[-106.64746800005044,35.085569],[-106.64629400005016,35.085242],[-106.64408200004968,35.086307],[-106.6405250000489,35.085587],[-106.63625200004797,35.085217],[-106.62761300004615,35.084116],[-106.62678200004599,35.084155],[-106.62661500004594,35.084152],[-106.62628300004589,35.084118],[-106.62611700004584,35.08411],[-106.6259000000458,35.084978],[-106.62570200004578,35.08592],[-106.62553500004573,35.08689],[-106.6253810000457,35.087755],[-106.62525500004568,35.0903],[-106.61998900004461,35.08788],[-106.61816400004423,35.087423],[-106.61820400004426,35.086962],[-106.62204700004501,35.086803],[-106.62204300004502,35.085853],[-106.62204700004501,35.086803],[-106.62410900004545,35.086709],[-106.62553500004573,35.08689],[-106.62611700004584,35.084112],[-106.62644000004592,35.08346],[-106.62655600004592,35.082919],[-106.62753300004611,35.077403],[-106.62755200004611,35.075939],[-106.63078100004678,35.071882],[-106.6308980000468,35.0701]],
        "distances": [0.0,0.0247,0.0905,0.1947,0.4023,0.5574,0.953,1.1996,1.3495,1.4647,1.6733,1.7763,1.9497,2.1623,2.3609,2.7522,2.8244,2.893,3.1701,3.3003,3.6185,3.6952,3.9468,3.9965,4.0816,4.3287,4.6915,5.0376,5.6,5.7717,5.8465,5.9875,6.2929,6.7233,6.7977,6.9081,7.2925,7.662,7.8159,8.0601,8.1918,8.3172,8.4232,9.1553,9.4892,9.8942,10.7213,10.9645,11.4964,11.7985,11.9308,12.0472,12.4019,12.5278,12.5852,12.9501,13.7633,13.9606,14.036,14.1819,14.2641,14.3709,14.5314,14.6716,14.9969,15.1957,15.2947,15.4145,16.5132,16.7384,16.9156,17.5481,17.6135,17.7307,18.3318,18.6098,18.8789,19.0009,19.0009,19.0695,19.1418,19.214,19.262,19.2941,19.3658,18.87912344324193,19.5569,19.7148,19.9393,20.3548,20.9614,21.8473,22.0215,22.3252,22.5082,22.7539,23.9766,25.0036,25.4163,25.6571,25.9265,26.4352,26.8211,26.9849,27.1254,27.3366,27.4304,28.7997,29.2379,29.7385,29.7871,29.8978,30.0126,30.2481,30.5791,30.9683,31.7589,31.8345,31.8505,31.8808,31.8958,31.9946,32.1012,32.2111,32.3091,32.5934,33.1403,33.3147,33.3659,33.7135,33.8195,33.7135,34.1128,32.2111,31.8958,34.6372,34.6992,35.3222,35.4864,36.0267,36.2272]
      }
    },
    "stop_lists": {
      "61e5a": ["5646","6436","6440","6446","1583","1585","1587","1589","1591","1593","3841","3845","1597","1599","6988","7290","1745","1291","1292","1289","1293","1465","1467","1469","1471","1473","7704","1475","1305","1306","1307","1308","1309","1310","1311","1425","1427","1429","1431","1433","1435","1437","1439","1441","1477","1479","1481","1483","1485","1487","1489","1491","7458","1493","1495","1497","1499","1501","1503","1507","1509","1511","7030"],
      "424b5": ["7030","1525","1527","1531","1533","1535","1537","7366","1541","7456","1543","1545","5654","1549","1551","1553","1555","1443","1445","1447","1449","1451","1453","1455","1457","1354","1459","1356","1358","1360","1362","1557","7702","1559","1561","1563","1565","1567","1568","1569","1392","1394","1727","1571","1573","1575","7022","3757","1577","1579","5772","1583","1585","1587","1589","1591","6332","6334","6336","6344"]
    },
    "stop_times": {
      "f2bd2": [0,117,166,238,284,314,428,471,523,558,600,625,674,708,770,799,855,900,917,952,995,1028,1063,1093,1149,1200,1223,1265,1394,1436,1467,1514,1558,1585,1620,1647,1665,1699,1751,1773,1802,1845,2624,2763,2793,2820,2845,2892,2908,2974,3030,3129,3162,3240,3361,3480,3663,3714,3782,4020],
      "ece4f": [0,56,126,198,243,278,360,481,600,745,853,954,1023,1140,1173,1192,1294,2040,2089,2119,2147,2204,2233,2252,2280,2311,2337,2373,2414,2440,2477,2526,2575,2614,2640,2672,2691,2721,2744,2763,2794,2825,2860,2889,2940,2962,3005,3032,3085,3122,3155,3180,3222,3257,3319,3358,3407,3466,3524,3602,3627,3669,3780],
      "376f6": [0,56,126,198,243,278,360,481,600,761,882,995,1072,1200,1235,1255,1362,2147,2198,2230,2259,2319,2350,2370,2400,2431,2457,2493,2534,2560,2597,2646,2695,2734,2760,2792,2811,2841,2864,2883,2914,2945,2980,3009,3060,3082,3125,3152,3205,3242,3275,3300,3342,3377,3439,3478,3527,3586,3644,3722,3747,3789,3900],
      "2cfe1": [0,105,149,214,256,283,385,424,471,502,540,565,614,648,710,739,795,840,857,892,935,968,1003,1033,1089,1140,1160,1196,1306,1342,1369,1409,1447,1470,1500,1525,1542,1575,1624,1645,1672,1713,2453,2585,2613,2640,2665,2712,2728,2794,2850,2949,2982,3060,3151,3240,3423,3474,3542,3780]
    },
    "stop_distances": {
      "ebe38": [0.0,0.3974,0.8899,1.3968,1.7174,1.9685,2.5279,3.068,3.5922,4.3997,5.0061,5.5734,5.9594,6.5989,6.9928,7.2164,8.4037,17.0913,17.6627,18.0189,18.3448,19.0087,19.3533,19.5781,19.866,20.2156,20.5074,20.9085,21.3662,21.6565,22.0665,22.615,23.1665,23.6008,23.8505,24.1567,24.3437,24.6358,24.8568,25.0378,25.3348,25.6344,25.9727,26.2497,26.6902,26.9537,27.4726,27.7989,28.4332,28.8812,29.2823,29.5393,29.9074,30.2146,30.7566,31.1036,31.5363,32.0536,32.5655,33.2457,33.4711,33.8445,34.7671],
      "87fe1": [0.0,1.0499,1.4939,2.1463,2.5663,2.8416,3.8647,4.2549,4.7278,5.0466,5.3786,5.648,6.176,6.5399,7.2035,7.5144,8.1161,8.5552,8.6982,8.9902,9.3496,9.6291,9.9261,10.1791,10.6472,11.0423,11.2664,11.6733,12.9096,13.3126,13.6153,14.0695,14.4991,14.7577,15.0618,15.3921,15.6178,16.0408,16.6731,16.9464,17.2998,17.8277,27.2701,28.9616,29.3311,29.5982,29.7902,30.1482,30.2731,30.7693,31.1928,31.9385,32.1897,32.7491,33.2892,33.8134,34.6109,34.8364,35.1326,36.1631]
    },
    "dwell_times": {
      "cea67": [0,0,0,0,0,0,0,0,0,0,0,0,0,0,0,0,0,0,0,0,0,0,0,0,0,0,0,0,0,0,0,0,0,0,0,0,0,0,0,0,0,0,0,0,0,0,0,0,0,0,0,0,0,0,0,0,0,0,0,0],
      "5d52c": [0,0,0,0,0,0,0,0,0,0,0,0,0,0,0,0,0,0,0,0,0,0,0,0,0,0,0,0,0,0,0,0,0,0,0,0,0,0,0,0,0,0,0,0,0,0,0,0,0,0,0,0,0,0,0,0,0,0,0,0,0,0,0]
    },
    "trips": {
      "1": [
        {"id":"396729","direction":0,"start_time":22620,"stops_key":"424b5","stop_distances":"87fe1","stop_times":"2cfe1","stop_dwells":"cea67","shape_key":"2880d"},
        {"id":"396730","direction":0,"start_time":24060,"stops_key":"424b5","stop_distances":"87fe1","stop_times":"f2bd2","stop_dwells":"cea67","shape_key":"2880d"},
        {"id":"396731","direction":1,"start_time":59220,"stops_key":"61e5a","stop_distances":"ebe38","stop_times":"ece4f","stop_dwells":"5d52c","shape_key":"29524"},
        {"id":"396732","direction":1,"start_time":60960,"stops_key":"61e5a","stop_distances":"ebe38","stop_times":"376f6","stop_dwells":"5d52c","shape_key":"29524"}
      ]
    }
  }
}