{
  "id": "4227",
  "short_name": "16",
  "long_name": "University/Gibson/Broadway",
  "color": "C01D8C",
  "text_color": "FFFFFF",
  "schedules": {
    "1": {
      "start_date": "20221105",
      "end_date": "20230317",
      "days_mask_mon_sun": 124,"added_days":[],"removed_days":[]
    },
    "2": {
      "start_date": "20221105",
      "end_date": "20230317",
      "days_mask_mon_sun": 2,"added_days":[],"removed_days":[]
    },
    "3": {
      "start_date": "20221105",
      "end_date": "20230317",
      "days_mask_mon_sun": 1,"added_days":[],"removed_days":[]
    }
  },
  "related_route_data": {"4239":{"short_name":"5","long_name":"Montgomery/Carlisle","color":"FF4E21","text_color":"000000"
    },"4247":{"short_name":"7","long_name":"Candelaria Commuter","color":"FF7F54","text_color":"000000"
    },"4251":{"short_name":"8","long_name":"Menaul","color":"7B097B","text_color":"FFFFFF"
    },"4219":{"short_name":"10","long_name":"North Fourth Street","color":"C30000","text_color":"FFFFFF"
    },"4220":{"short_name":"11","long_name":"Lomas","color":"800080","text_color":"FFFFFF"
    },"4221":{"short_name":"12","long_name":"Constitution Commuter","color":"B7FF00","text_color":"000000"
    },"4227":{"short_name":"16","long_name":"University/Gibson/Broadway","color":"C01D8C","text_color":"FFFFFF"
    },"4236":{"short_name":"34","long_name":"San Pedro Commuter","color":"FF9E00","text_color":"000000"
    },"4237":{"short_name":"36","long_name":"12th Street/Rio Grande","color":"800000","text_color":"FFFFFF"
    },"4240":{"short_name":"50","long_name":"Airport/Downtown","color":"71220F","text_color":"FFFFFF"
    },"4242":{"short_name":"53","long_name":"Isleta","color":"2390CF","text_color":"000000"
    },"4243":{"short_name":"54","long_name":"Bridge/Westgate","color":"006097","text_color":"FFFFFF"
    },"4246":{"short_name":"66","long_name":"Central Avenue","color":"00DEC8","text_color":"000000"
    },"4252":{"short_name":"92","long_name":"Taylor Ranch Express","color":"D43815","text_color":"FFFFFF"
    },"4255":{"short_name":"96","long_name":"Crosstown Commuter","color":"F3F400","text_color":"000000"
    },"4256":{"short_name":"97","long_name":"Zuni Express","color":"6600FF","text_color":"FFFFFF"
    },"4223":{"short_name":"140","long_name":"San Mateo / CNM Work Force","color":"420080","text_color":"FFFFFF"
    },"4224":{"short_name":"141","long_name":"San Mateo","color":"7E0080","text_color":"FFFFFF"
    },"4226":{"short_name":"157","long_name":"Cottonwood/Montano/UTC","color":"008047","text_color":"FFFFFF"
    },"4232":{"short_name":"222","long_name":"Rio Bravo/ Rail Runner/ KAFB","color":"804A80","text_color":"FFFFFF"
    },"4248":{"short_name":"766","long_name":"ART Red Line","color":"EC0000","text_color":"FFFFFF"
    },"4249":{"short_name":"777","long_name":"ART Green Line","color":"00FF00","text_color":"000000"
    }
  },
  "stops": {"1575":{"name":"2nd @ Marquette (Convention Center)","desc":"2ND ST NW \u0026 MARQUETTE AVE NW","coordinates":[-106.6487,35.0877],"related_stops":["1575","6966"],"transfer_routes":["4239","4247","4219","4220","4221","4227","4240","4252"],"related_routes":[]
    },"1577":{"name":"Martin Luther King @ Broadway","desc":"MARTIN LUTHER KING AVE NE \u0026 BROADWAY BLVD NE","coordinates":[-106.6438,35.0861],"related_stops":["1577","3757","1597","7678","6322"],"transfer_routes":["4221","4240","4252"],"related_routes":["4227"]
    },"1583":{"name":"University @ Martin Luther King","desc":"UNIVERSITY BLVD. NE \u0026 M.L.K. AVE. NW","coordinates":[-106.6258,35.0845],"related_stops":["1583","1593","3773","7408","7410","6332"],"transfer_routes":["4221","4227","4252"],"related_routes":["4240"]
    },"1585":{"name":"University @ Las Lomas","desc":"LAS LOMAS RD NE \u0026 UNIVERSITY BLVD NE","coordinates":[-106.6254,35.0867],"related_stops":["4067","1585"],"transfer_routes":["4221","4227","4252"],"related_routes":[]
    },"1587":{"name":"Lomas @ University","desc":"LOMAS BLVD NE \u0026 BUENA VISTA DR NE","coordinates":[-106.6238,35.0895],"related_stops":["4063","7238","4065","6330","5079","1587","5662","7283"],"transfer_routes":["4239","4220","4221","4252"],"related_routes":["4227"]
    },"1593":{"name":"Martin Luther King @ University","desc":"MARTIN LUTHER KING AVE NE \u0026 UNIVERSITY BLVD NE","coordinates":[-106.6269,35.0842],"related_stops":["1583","1593","3773","7408","7410","6332"],"transfer_routes":["4221","4240","4252"],"related_routes":["4227"]
    },"1597":{"name":"Martin Luther King @ Broadway","desc":"MARTIN LUTHER KING AVE NE \u0026 BROADWAY BLVD NE","coordinates":[-106.6438,35.0864],"related_stops":["1577","3757","1597","7678","6322"],"transfer_routes":["4221","4240","4252"],"related_routes":["4227"]
    },"1729":{"name":"2nd @ Copper","desc":"2ND ST NW \u0026 COPPER AVE NW","coordinates":[-106.6491,35.0855],"related_stops":["1729","7022"],"transfer_routes":["4239","4247","4219","4220","4221","4227","4240"],"related_routes":["4252"]
    },"2789":{"name":"Louisiana @ Eastern","desc":"LOUISIANA BLVD SE \u0026 EASTERN AVE SE","coordinates":[-106.5689,35.0608],"related_stops":["6386","2807","2789","7344","2915","6384","2959"],"transfer_routes":["4226"],"related_routes":["4227","4255"]
    },"2799":{"name":"San Pedro @ Gibson","desc":"SAN PEDRO DR SE \u0026 GIBSON BLVD SE","coordinates":[-106.5775,35.058],"related_stops":["2801","6002","2917","2957","6210","6212","2799"],"transfer_routes":["4236"],"related_routes":["4227","4255","4226","4232"]
    },"2801":{"name":"Gibson @ San Pedro","desc":"GIBSON BLVD SE \u0026 CALIFORNIA ST SE","coordinates":[-106.5758,35.0582],"related_stops":["2801","6002","2917","2957","6210","6212","2799"],"transfer_routes":["4227","4226"],"related_routes":["4236","4255","4232"]
    },"2803":{"name":"Gibson @ Dakota","desc":"GIBSON BLVD SE \u0026 DAKOTA ST SE","coordinates":[-106.5738,35.0581],"related_stops":["2803","6388"],"transfer_routes":["4227","4255","4226"],"related_routes":[]
    },"2807":{"name":"Louisiana @ Eastern","desc":"LOUISIANA BLVD SE \u0026 EASTERN AVE SE","coordinates":[-106.5686,35.0605],"related_stops":["6386","2807","2789","7344","2915","6384","2959"],"transfer_routes":["4226"],"related_routes":["4227","4255"]
    },"2915":{"name":"Gibson @ Louisiana","desc":"GIBSON BLVD SE \u0026 LOUISIANA BLVD","coordinates":[-106.5693,35.0583],"related_stops":["6386","2807","2789","7344","2915","6384","2959"],"transfer_routes":["4227","4255","4226"],"related_routes":[]
    },"2917":{"name":"Gibson @ San Pedro","desc":"GIBSON BLVD SE \u0026 SAN PEDRO DR SE","coordinates":[-106.5771,35.0584],"related_stops":["2801","6002","2917","2957","6210","6212","2799"],"transfer_routes":["4227","4255","4232"],"related_routes":["4236","4226"]
    },"2919":{"name":"Gibson @ San Mateo","desc":"GIBSON BLVD SE \u0026 SAN MATEO BLVD SE","coordinates":[-106.5856,35.0585],"related_stops":["2919","2949","2951","6516","6494","7228"],"transfer_routes":["4227","4255","4232"],"related_routes":["4223","4224"]
    },"2921":{"name":"Gibson @ Truman","desc":"GIBSON BLVD SE \u0026 TRUMAN ST SE","coordinates":[-106.5891,35.0584],"related_stops":["2921","2947","6398","6382"],"transfer_routes":["4227","4255","4232"],"related_routes":[]
    },"2923":{"name":"Gibson @ Washington","desc":"GIBSON BLVD SE \u0026 WASHINGTON ST SE","coordinates":[-106.5956,35.0584],"related_stops":["2945","2923"],"transfer_routes":["4227","4255"],"related_routes":[]
    },"2927":{"name":"Gibson @ Carlisle","desc":"GIBSON BLVD SE \u0026 CARLISLE BLVD SE","coordinates":[-106.6047,35.0584],"related_stops":["2927","2941","7438","6400"],"transfer_routes":["4255","4232"],"related_routes":["4227"]
    },"2933":{"name":"Gibson @ University","desc":"GIBSON BLVD SE \u0026 UNIVERSITY BLVD SE","coordinates":[-106.6329,35.0589],"related_stops":["2933","2935","6428","7422","6352"],"transfer_routes":["4255"],"related_routes":["4227"]
    },"2935":{"name":"Gibson @ University","desc":"GIBSON BLVD SE \u0026 UNIVERSITY BLVD SE","coordinates":[-106.63,35.0583],"related_stops":["2933","2935","6428","7422","6352"],"transfer_routes":["4227","4255"],"related_routes":[]
    },"2937":{"name":"Gibson @ Yale","desc":"GIBSON BLVD SE \u0026 YALE BLVD SE","coordinates":[-106.6216,35.0583],"related_stops":["2937","3817","5670","3795"],"transfer_routes":["4255"],"related_routes":["4227","4240"]
    },"2941":{"name":"Gibson @ Carlisle","desc":"GIBSON BLVD SE \u0026 CARLISLE BLVD SE","coordinates":[-106.6036,35.0581],"related_stops":["2927","2941","7438","6400"],"transfer_routes":["4227","4255","4232"],"related_routes":[]
    },"2943":{"name":"Gibson @ Maxwell","desc":"GIBSON BLVD SE \u0026 MAXWELL ST SE","coordinates":[-106.6016,35.0581],"related_stops":["2943"],"transfer_routes":["4227","4255"],"related_routes":[]
    },"2945":{"name":"Gibson @ Washington","desc":"GIBSON BLVD SE \u0026 WASHINGTON ST SE","coordinates":[-106.595,35.0581],"related_stops":["2945","2923"],"transfer_routes":["4227","4255"],"related_routes":[]
    },"2947":{"name":"Gibson @ Truman","desc":"GIBSON BLVD SE \u0026 TRUMAN ST SE","coordinates":[-106.589,35.0581],"related_stops":["2921","2947","6398","6382"],"transfer_routes":["4227","4255","4232"],"related_routes":[]
    },"2949":{"name":"Gibson @ San Mateo","desc":"GIBSON BLVD SE \u0026 SAN MATEO BLVD SE","coordinates":[-106.5866,35.0582],"related_stops":["2919","2949","2951","6516","6494","7228"],"transfer_routes":["4227","4255","4232"],"related_routes":["4223","4224"]
    },"2951":{"name":"Gibson @ San Mateo","desc":"GIBSON BLVD SE \u0026 SAN MATEO BLVDSE","coordinates":[-106.5849,35.0582],"related_stops":["2919","2949","2951","6516","6494","7228"],"transfer_routes":["4227","4232"],"related_routes":["4255","4223","4224"]
    },"2953":{"name":"Gibson @ Valencia","desc":"GIBSON BLVD SE \u0026 VALENCIA DR SE","coordinates":[-106.5818,35.0582],"related_stops":["2955","6392","2953","6394"],"transfer_routes":["4227","4255"],"related_routes":["4232"]
    },"2955":{"name":"Gibson @ Valencia","desc":"GIBSON BLVD SE \u0026 CARDENAS DR SE","coordinates":[-106.5802,35.0582],"related_stops":["2955","6392","2953","6394"],"transfer_routes":["4227","4232"],"related_routes":["4255"]
    },"2957":{"name":"Gibson @ San Pedro","desc":"GIBSON BLVD SE \u0026 SAN PEDRO DR SE","coordinates":[-106.5778,35.0582],"related_stops":["2801","6002","2917","2957","6210","6212","2799"],"transfer_routes":["4227","4255"],"related_routes":["4236","4226","4232"]
    },"2959":{"name":"Gibson @ Indiana","desc":"GIBSON BLVD SE \u0026 INDIANA ST SE","coordinates":[-106.5707,35.0581],"related_stops":["6386","2807","2789","7344","2915","6384","2959"],"transfer_routes":["4255","4226"],"related_routes":["4227"]
    },"3094":{"name":"Girard @ Central","desc":"GIRARD BLVD SE \u0026 CENTRAL AVE SE","coordinates":[-106.6134,35.0803],"related_stops":["4671","4673","4669","3094","6366","4467","4465","5694"],"transfer_routes":["4227"],"related_routes":["4246"]
    },"3185":{"name":"Coal @ Hazeldine","desc":"COAL AVE SE \u0026 HAZELDINE AVE SE","coordinates":[-106.6281,35.0764],"related_stops":["3491","7428","3185","6438"],"transfer_routes":["4256"],"related_routes":["4227"]
    },"3471":{"name":"Lead @ Carlisle","desc":"LEAD AVE SE \u0026 CARLISLE BLVD SE","coordinates":[-106.6044,35.0773],"related_stops":["3497","6412","6368","3471"],"transfer_routes":["4256"],"related_routes":["4227"]
    },"3485":{"name":"Coal @ Broadway","desc":"COAL AVE SE \u0026 BROADWAY BLVD SE","coordinates":[-106.6449,35.0796],"related_stops":["3485","6452","6318"],"transfer_routes":["4256"],"related_routes":["4227"]
    },"3491":{"name":"Coal @ University","desc":"COAL AVE SE \u0026 UNIVERSITY BLVD SE","coordinates":[-106.6258,35.0749],"related_stops":["3491","7428","3185","6438"],"transfer_routes":["4256"],"related_routes":["4227"]
    },"3497":{"name":"Coal @ Carlisle","desc":"COAL AVE SE \u0026 CARLISLE BLVD SE","coordinates":[-106.6048,35.0754],"related_stops":["3497","6412","6368","3471"],"transfer_routes":["4256"],"related_routes":["4227"]
    },"3519":{"name":"Broadway @ Lomas","desc":"BROADWAY BLVD NE \u0026 LOMAS BLVD NE","coordinates":[-106.6431,35.0907],"related_stops":["5091","3755","4849","3519","4851","7686","5089"],"transfer_routes":["4227"],"related_routes":["4220"]
    },"3521":{"name":"Broadway @ Mountain","desc":"BROADWAY BLVD NE \u0026 MOUNTAIN RD NE","coordinates":[-106.6426,35.0938],"related_stops":["5095","3751","5107","3521","5105","5097","5099"],"transfer_routes":["4227"],"related_routes":["4239"]
    },"3523":{"name":"Broadway @ Rosemont","desc":"BROADWAY BLVD NE \u0026 ROSEMONT AVE NE","coordinates":[-106.6422,35.0956],"related_stops":["3523","3749"],"transfer_routes":["4227"],"related_routes":[]
    },"3529":{"name":"Odelia @ Edith","desc":"ODELIA RD NE \u0026 EDITH BLVD NE","coordinates":[-106.6388,35.099],"related_stops":["3529","3745"],"transfer_routes":["4227"],"related_routes":[]
    },"3531":{"name":"Odelia @ I 25 Frontage Rd.","desc":"INDIAN SCHOOL RD NE \u0026 LOCUST PL NE","coordinates":[-106.6349,35.0984],"related_stops":["3531","3743"],"transfer_routes":["4227"],"related_routes":[]
    },"3741":{"name":"Indian School @ University","desc":"INDIAN SCHOOL RD NE \u0026 UNIVERSITY BLVD NE","coordinates":[-106.6278,35.0988],"related_stops":["3741","6324"],"transfer_routes":["4227"],"related_routes":[]
    },"3743":{"name":"Indian School @ Locust","desc":"INDIAN SCHOOL RD NE \u0026 LOCUST PL NE","coordinates":[-106.6351,35.0987],"related_stops":["3531","3743"],"transfer_routes":["4227"],"related_routes":[]
    },"3745":{"name":"Odelia @ Edith","desc":"ODELIA RD NE \u0026 EDITH BLVD NE","coordinates":[-106.6389,35.0992],"related_stops":["3529","3745"],"transfer_routes":["4227"],"related_routes":[]
    },"3747":{"name":"Broadway @ Odelia","desc":"BROADWAY BLVD NE \u0026 ODELIA RD NE","coordinates":[-106.6419,35.0983],"related_stops":["5816","3747"],"transfer_routes":["4227"],"related_routes":[]
    },"3749":{"name":"Broadway @ Rosemont","desc":"BROADWAY BLVD NE \u0026 ROSEMONT AVE NE","coordinates":[-106.6424,35.0954],"related_stops":["3523","3749"],"transfer_routes":["4227"],"related_routes":[]
    },"3751":{"name":"Broadway @ Mountain","desc":"BROADWAY BLVD NE \u0026 MOUNTAIN RD NE","coordinates":[-106.6429,35.0932],"related_stops":["5095","3751","5107","3521","5105","5097","5099"],"transfer_routes":["4227"],"related_routes":["4239"]
    },"3755":{"name":"Lomas @ Broadway","desc":"LOMAS BLVD NE \u0026 BROADWAY BLVD NE","coordinates":[-106.645,35.0906],"related_stops":["5091","3755","4849","3519","4851","7686","5089"],"transfer_routes":["4220"],"related_routes":["4227"]
    },"3757":{"name":"Martin Luther King @ Broadway","desc":"MARTIN LUTHER KING AVE NE \u0026 BROADWAY BLVD NE","coordinates":[-106.6449,35.0859],"related_stops":["1577","3757","1597","7678","6322"],"transfer_routes":["4221","4240","4252"],"related_routes":["4227"]
    },"3773":{"name":"Martin Luther King @ University","desc":"MARTIN LUTHER KING AVE NE \u0026 UNIVERSITY BLVD NE","coordinates":[-106.6266,35.0841],"related_stops":["1583","1593","3773","7408","7410","6332"],"transfer_routes":["4221","4240"],"related_routes":["4227","4252"]
    },"3787":{"name":"Yale @ Kathryn","desc":"YALE BLVD SE \u0026 KATHRYN AVE SE","coordinates":[-106.6221,35.0663],"related_stops":["3787","6424","3821","3823","6354","5652"],"transfer_routes":["4240"],"related_routes":["4227"]
    },"3795":{"name":"Yale @ Gibson","desc":"YALE BLVD SE \u0026 GIBSON BLVD SE","coordinates":[-106.6222,35.0589],"related_stops":["2937","3817","5670","3795"],"transfer_routes":["4227","4240"],"related_routes":["4255"]
    },"3817":{"name":"Yale @ Gibson","desc":"YALE BLVD SE \u0026 GIBSON BLVD SE","coordinates":[-106.6219,35.0594],"related_stops":["2937","3817","5670","3795"],"transfer_routes":["4227","4240"],"related_routes":["4255"]
    },"3819":{"name":"Yale @ Ross","desc":"YALE BLVD SE \u0026 ROSS AVE SE","coordinates":[-106.6219,35.0621],"related_stops":["3819","7320"],"transfer_routes":["4227","4240"],"related_routes":[]
    },"3821":{"name":"Yale @ Kathryn","desc":"0 YALE BLVD SE \u0026 KATHRYN AVE SE","coordinates":[-106.6219,35.0641],"related_stops":["3787","6424","3821","3823","6354","5652"],"transfer_routes":["4227","4240"],"related_routes":[]
    },"3823":{"name":"Yale @ Kathryn","desc":"YALE BLVD SE \u0026 KATHRYN AVE SE","coordinates":[-106.6219,35.0668],"related_stops":["3787","6424","3821","3823","6354","5652"],"transfer_routes":["4240"],"related_routes":["4227"]
    },"3849":{"name":"University @ Mesa Vista","desc":"UNIVERSITY BLVD NE \u0026 MESA VISTA RD SE","coordinates":[-106.6252,35.0885],"related_stops":["3849"],"transfer_routes":["4221","4227"],"related_routes":[]
    },"4063":{"name":"Lomas @ Yale (UNM)","desc":"LOMAS BLVD NE \u0026 YALE BLVD NE","coordinates":[-106.6216,35.0887],"related_stops":["4063","7238","4065","6330","5079","1587","5662","7283"],"transfer_routes":["4239","4220","4221"],"related_routes":["4227","4252"]
    },"4065":{"name":"Lomas @ Yale (UNM)","desc":"LOMAS BLVD NE \u0026 YALE BLVD NE","coordinates":[-106.6234,35.0896],"related_stops":["4063","7238","4065","6330","5079","1587","5662","7283"],"transfer_routes":["4239","4220","4221"],"related_routes":["4227","4252"]
    },"4067":{"name":"University @ Las Lomas","desc":"UNIVERSITY BLVD NE \u0026 LAS LOMAS RD NE","coordinates":[-106.6257,35.0871],"related_stops":["4067","1585"],"transfer_routes":["4221","4227"],"related_routes":["4252"]
    },"4441":{"name":"1st @ Central (ATC)","desc":"1ST ST SW \u0026 CENTRAL AVE SW","coordinates":[-106.648,35.0838],"related_stops":["6930","6932","4841","4831","4843","4833","4845","4703","4835","4441","6972","4847","4837","7507","7528"],"transfer_routes":["4246"],"related_routes":["4239","4247","4251","4219","4220","4221","4227","4237","4240","4242","4243","4256","4248","4249"]
    },"4443":{"name":"Central @ Broadway","desc":"CENTRAL AVE E \u0026 BROADWAY BLVD SE","coordinates":[-106.6452,35.0836],"related_stops":["6448","4443"],"transfer_routes":["4246"],"related_routes":["4227"]
    },"4457":{"name":"Central @ Mesa","desc":"CENTRAL AVE sE \u0026 MESA ST SE","coordinates":[-106.6257,35.0811],"related_stops":["4681","4683","6444","6446","7525","7510","6334","4457"],"transfer_routes":["4246"],"related_routes":["4227","4252","4248","4249"]
    },"4465":{"name":"Central @ Columbia","desc":"CENTRAL AVE SE \u0026 COLUMBIA DR SE","coordinates":[-106.6168,35.0809],"related_stops":["4671","4673","4669","3094","6366","4467","4465","5694"],"transfer_routes":["4246"],"related_routes":["4227"]
    },"4467":{"name":"Central @ Vassar","desc":"CENTRAL AVE E \u0026 VASSAR DR SE","coordinates":[-106.6142,35.0809],"related_stops":["4671","4673","4669","3094","6366","4467","4465","5694"],"transfer_routes":["4246"],"related_routes":["4227"]
    },"4471":{"name":"Central @ Tulane","desc":"CENTRAL AVE SE \u0026 TULANE DR SE","coordinates":[-106.6075,35.0801],"related_stops":["5690","4471"],"transfer_routes":["4227","4246"],"related_routes":[]
    },"4475":{"name":"Central @ Hermosa","desc":"CENTRAL AVE SE \u0026 HERMOSA DR SE","coordinates":[-106.6037,35.0796],"related_stops":["6414","4475","7474","5752"],"transfer_routes":["4246"],"related_routes":["4227"]
    },"4669":{"name":"Central @ Girard","desc":"CENTRAL AVE NE \u0026 GIRARD BLVD SE","coordinates":[-106.6127,35.081],"related_stops":["4671","4673","4669","3094","6366","4467","4465","5694"],"transfer_routes":["4246"],"related_routes":["4227"]
    },"4671":{"name":"Central @ Girard","desc":"CENTRAL AVE E \u0026 GIRARD BLVD NE","coordinates":[-106.6139,35.0811],"related_stops":["4671","4673","4669","3094","6366","4467","4465","5694"],"transfer_routes":["4246"],"related_routes":["4227"]
    },"4673":{"name":"Central @ Girard","desc":"CENTRAL AVE NE \u0026 GIRARD BLVD NE","coordinates":[-106.616,35.0811],"related_stops":["4671","4673","4669","3094","6366","4467","4465","5694"],"transfer_routes":["4246"],"related_routes":["4227"]
    },"4681":{"name":"Central @ University","desc":"CENTRAL AVE NE \u0026 UNIVERSITY BLVD NE","coordinates":[-106.6254,35.0813],"related_stops":["4681","4683","6444","6446","7525","7510","6334","4457"],"transfer_routes":["4246"],"related_routes":["4227","4252","4248","4249"]
    },"4683":{"name":"Central @ University","desc":"CENTRAL AVE E \u0026 PINE ST NE","coordinates":[-106.6273,35.0815],"related_stops":["4681","4683","6444","6446","7525","7510","6334","4457"],"transfer_routes":["4246"],"related_routes":["4227","4252","4248","4249"]
    },"4703":{"name":"Central @ 1st (across from ATC)","desc":"CENTRAL AVE nW \u0026 1st St NW","coordinates":[-106.6487,35.0843],"related_stops":["6930","6932","4841","4831","4843","4833","4845","4703","4835","4441","6972","4847","4837","7507","7528"],"transfer_routes":["4246"],"related_routes":["4239","4247","4251","4219","4220","4221","4227","4237","4240","4242","4243","4256","4248","4249"]
    },"4831":{"name":"A.T.C.  (Bay L)","desc":"ATC BAY L","coordinates":[-106.6477,35.0829],"related_stops":["6930","6932","4841","4831","4843","4833","4845","4703","4835","4441","6972","4847","4837","7507","7528"],"transfer_routes":["4243"],"related_routes":["4239","4247","4251","4219","4220","4221","4227","4237","4240","4242","4246","4256","4248","4249"]
    },"4833":{"name":"A.T.C.  (Bay M)","desc":"ATC BAY M","coordinates":[-106.6477,35.0831],"related_stops":["6930","6932","4841","4831","4843","4833","4845","4703","4835","4441","6972","4847","4837","7507","7528"],"transfer_routes":["4221","4227"],"related_routes":["4239","4247","4251","4219","4220","4237","4240","4242","4243","4246","4256","4248","4249"]
    },"4835":{"name":"A.T.C.  (Bay C)","desc":"ATC BAY C","coordinates":[-106.6476,35.0837],"related_stops":["6930","6932","4841","4831","4843","4833","4845","4703","4835","4441","6972","4847","4837","7507","7528"],"transfer_routes":["4219"],"related_routes":["4239","4247","4251","4220","4221","4227","4237","4240","4242","4243","4246","4256","4248","4249"]
    },"4837":{"name":"A.T.C.  (Bay D)","desc":"ATC BAY D","coordinates":[-106.6475,35.0836],"related_stops":["6930","6932","4841","4831","4843","4833","4845","4703","4835","4441","6972","4847","4837","7507","7528"],"transfer_routes":["4220"],"related_routes":["4239","4247","4251","4219","4221","4227","4237","4240","4242","4243","4246","4256","4248","4249"]
    },"4841":{"name":"A.T.C.  (Bay F)","desc":"ATC BAY F","coordinates":[-106.6475,35.0832],"related_stops":["6930","6932","4841","4831","4843","4833","4845","4703","4835","4441","6972","4847","4837","7507","7528"],"transfer_routes":["4242"],"related_routes":["4239","4247","4251","4219","4220","4221","4227","4237","4240","4243","4246","4256","4248","4249"]
    },"4843":{"name":"A.T.C.  (Bay G)","desc":"ATC BAY G","coordinates":[-106.6476,35.083],"related_stops":["6930","6932","4841","4831","4843","4833","4845","4703","4835","4441","6972","4847","4837","7507","7528"],"transfer_routes":["4239"],"related_routes":["4247","4251","4219","4220","4221","4227","4237","4240","4242","4243","4246","4256","4248","4249"]
    },"4845":{"name":"A.T.C.  (Bay H)","desc":"ATC BAY H","coordinates":[-106.6476,35.0829],"related_stops":["6930","6932","4841","4831","4843","4833","4845","4703","4835","4441","6972","4847","4837","7507","7528"],"transfer_routes":["4251"],"related_routes":["4239","4247","4219","4220","4221","4227","4237","4240","4242","4243","4246","4256","4248","4249"]
    },"4847":{"name":"A.T.C.  (Bay J)","desc":"ATC Bay J","coordinates":[-106.6476,35.0827],"related_stops":["6930","6932","4841","4831","4843","4833","4845","4703","4835","4441","6972","4847","4837","7507","7528"],"transfer_routes":["4256"],"related_routes":["4239","4247","4251","4219","4220","4221","4227","4237","4240","4242","4243","4246","4248","4249"]
    },"4849":{"name":"Lomas @ Broadway","desc":"LOMAS BLVD NE \u0026 BROADWAY BLVD NE","coordinates":[-106.6439,35.0902],"related_stops":["5091","3755","4849","3519","4851","7686","5089"],"transfer_routes":["4220"],"related_routes":["4227"]
    },"4851":{"name":"Lomas @ Broadway","desc":"LOMAS BLVD NE \u0026 BROADWAY BLVD NE","coordinates":[-106.6428,35.0901],"related_stops":["5091","3755","4849","3519","4851","7686","5089"],"transfer_routes":["4220"],"related_routes":["4227"]
    },"5079":{"name":"Lomas @ University","desc":"LOMAS BLVD NE \u0026 UNIVERSITY BLVD NE","coordinates":[-106.6259,35.0907],"related_stops":["4063","7238","4065","6330","5079","1587","5662","7283"],"transfer_routes":["4239","4220"],"related_routes":["4221","4227","4252"]
    },"5089":{"name":"Lomas @ Broadway","desc":"LOMAS BLVD NE \u0026 BROADWAY BLVD NE","coordinates":[-106.643,35.0904],"related_stops":["5091","3755","4849","3519","4851","7686","5089"],"transfer_routes":["4220"],"related_routes":["4227"]
    },"5091":{"name":"Lomas @ Broadway","desc":"LOMAS BLVD NE \u0026 BROADWAY BLVD NE","coordinates":[-106.6436,35.0904],"related_stops":["5091","3755","4849","3519","4851","7686","5089"],"transfer_routes":["4220"],"related_routes":["4227"]
    },"5095":{"name":"Mountain @ Broadway","desc":"MOUNTAIN RD NE \u0026 BROADWAY BLVD NE","coordinates":[-106.6443,35.0944],"related_stops":["5095","3751","5107","3521","5105","5097","5099"],"transfer_routes":["4239"],"related_routes":["4227"]
    },"5097":{"name":"Mountain @ Broadway","desc":"MOUNTAIN RD NE \u0026 BROADWAY BLVD NE","coordinates":[-106.642,35.0943],"related_stops":["5095","3751","5107","3521","5105","5097","5099"],"transfer_routes":["4239"],"related_routes":["4227"]
    },"5099":{"name":"Mountain @ Edith","desc":"MOUNTAIN RD NE \u0026 EDITH BLVD NE","coordinates":[-106.6398,35.0942],"related_stops":["5095","3751","5107","3521","5105","5097","5099"],"transfer_routes":["4239"],"related_routes":["4227"]
    },"5105":{"name":"Mountain @ Edith","desc":"MOUNTAIN RD NE \u0026 EDITH BLVD NE","coordinates":[-106.641,35.0944],"related_stops":["5095","3751","5107","3521","5105","5097","5099"],"transfer_routes":["4239"],"related_routes":["4227"]
    },"5107":{"name":"Mountain @ Broadway","desc":"MOUNTAIN RD NE \u0026 BROADWAY BLVD NE","coordinates":[-106.6442,35.0945],"related_stops":["5095","3751","5107","3521","5105","5097","5099"],"transfer_routes":["4239"],"related_routes":["4227"]
    },"5646":{"name":"University @ Isotopes Stadium","desc":"UNIVERSITY BLVD SE \u0026 ISOTOPES STADIUM","coordinates":[-106.6307,35.0701],"related_stops":["5646","6344"],"transfer_routes":["4227","4252"],"related_routes":[]
    },"5652":{"name":"Yale @ Anderson","desc":"YALE BLVD SE \u0026 ANDERSON AVE SE","coordinates":[-106.6221,35.0644],"related_stops":["3787","6424","3821","3823","6354","5652"],"transfer_routes":["4227","4240"],"related_routes":[]
    },"5662":{"name":"Lomas @ University","desc":"LOMAS BLVD NE \u0026 UNIVERSITY BLVD NE","coordinates":[-106.6258,35.0904],"related_stops":["4063","7238","4065","6330","5079","1587","5662","7283"],"transfer_routes":["4239","4220"],"related_routes":["4221","4227","4252"]
    },"5664":{"name":"Gibson @ Buena Vista","desc":"GIBSON BLVD SE \u0026 BUENA VISTA DR SE","coordinates":[-106.6255,35.0586],"related_stops":["5664"],"transfer_routes":["4227"],"related_routes":[]
    },"5670":{"name":"Gibson @ Yale","desc":"GIBSON BLVD SE \u0026 YALE BLVD SE","coordinates":[-106.6225,35.0586],"related_stops":["2937","3817","5670","3795"],"transfer_routes":["4227","4255"],"related_routes":["4240"]
    },"5690":{"name":"Central @ Tulane","desc":"CENTRAL AVE E \u0026 TULANE DR NE","coordinates":[-106.6073,35.0803],"related_stops":["5690","4471"],"transfer_routes":["4227","4246"],"related_routes":[]
    },"5692":{"name":"Central @ Bryn Mawr","desc":"CENTRAL AVE E \u0026 BRYN MAWR DR NE","coordinates":[-106.6098,35.0806],"related_stops":["7523","5692","7512"],"transfer_routes":["4227","4246"],"related_routes":["4248","4249"]
    },"5694":{"name":"Central @ Dartmouth","desc":"CENTRAL AVE \u0026 DARTMOUTH DR SE","coordinates":[-106.6118,35.0807],"related_stops":["4671","4673","4669","3094","6366","4467","4465","5694"],"transfer_routes":["4227","4246"],"related_routes":[]
    },"5748":{"name":"University @ Camino de Salud","desc":"UNIVERSITY BLVD NE \u0026 CAMINO DE SALUD  NE","coordinates":[-106.6266,35.0949],"related_stops":["7676","5748"],"transfer_routes":["4227"],"related_routes":[]
    },"5752":{"name":"Carlisle @ Silver","desc":"CARLISLE BLVD SE \u0026 SILVER AVE SE","coordinates":[-106.6046,35.0788],"related_stops":["6414","4475","7474","5752"],"transfer_routes":["4227"],"related_routes":["4246"]
    },"5816":{"name":"Broadway @ Odelia","desc":"BROADWAY BLVD NE \u0026 ODELIA RD NE","coordinates":[-106.6417,35.0985],"related_stops":["5816","3747"],"transfer_routes":["4227"],"related_routes":[]
    },"6002":{"name":"San Pedro @ Gibson","desc":"SAN PEDRO DR SE \u0026 GIBSON BLVD SE","coordinates":[-106.5775,35.0587],"related_stops":["2801","6002","2917","2957","6210","6212","2799"],"transfer_routes":["4236"],"related_routes":["4227","4255","4226","4232"]
    },"6210":{"name":"San Pedro @ Gibson","desc":"0 SAN PEDRO DR SE \u0026 GIBSON BLVD SE","coordinates":[-106.5777,35.0591],"related_stops":["2801","6002","2917","2957","6210","6212","2799"],"transfer_routes":["4236","4226"],"related_routes":["4227","4255","4232"]
    },"6212":{"name":"San Pedro @ Gibson","desc":"SAN PEDRO DR SE \u0026 GIBSON BLVD SE","coordinates":[-106.5777,35.0576],"related_stops":["2801","6002","2917","2957","6210","6212","2799"],"transfer_routes":["4236"],"related_routes":["4227","4255","4226","4232"]
    },"6296":{"name":"Broadway @ San Jose","desc":"BROADWAY BLVD SE \u0026 SAN JOSE AVE SE","coordinates":[-106.6451,35.0551],"related_stops":["7672","6296"],"transfer_routes":["4227"],"related_routes":[]
    },"6300":{"name":"Broadway @ Wheeler","desc":"0 BROADWAY BLVD SE \u0026 WHEELER AVE SE","coordinates":[-106.6451,35.0591],"related_stops":["6300"],"transfer_routes":["4227"],"related_routes":[]
    },"6302":{"name":"Broadway @ Gibson","desc":"BROADWAY BLVD SE \u0026 GIBSON BLVD SE","coordinates":[-106.6452,35.0616],"related_stops":["6302"],"transfer_routes":["4227"],"related_routes":[]
    },"6304":{"name":"Broadway @ Anderson","desc":"BROADWAY BLVD SE \u0026 ANDERSON AVE SE","coordinates":[-106.6452,35.063],"related_stops":["6304"],"transfer_routes":["4227"],"related_routes":[]
    },"6306":{"name":"Broadway @ Kathryn","desc":"BROADWAY BLVD SE \u0026 KATHRYN AVE SE","coordinates":[-106.6453,35.0655],"related_stops":["6306"],"transfer_routes":["4227"],"related_routes":[]
    },"6308":{"name":"Broadway @ Dan","desc":"BROADWAY BLVD SE \u0026 DAN AVE SE","coordinates":[-106.6453,35.0678],"related_stops":["6308"],"transfer_routes":["4227"],"related_routes":[]
    },"6310":{"name":"Broadway @ Avenida Cesar Chavez","desc":"BROADWAY BLVD SE \u0026 AVENIDA CESAR CHAVEZ  SE","coordinates":[-106.6454,35.0701],"related_stops":["6460","6462","6310"],"transfer_routes":["4227"],"related_routes":[]
    },"6312":{"name":"Broadway @ Garfield","desc":"BROADWAY BLVD SE \u0026 GARFIELD AVE SE","coordinates":[-106.6455,35.0723],"related_stops":["6458","6312"],"transfer_routes":["4227"],"related_routes":[]
    },"6314":{"name":"Broadway @ Santa Fe","desc":"SANTA FE AVE SE \u0026 BROADWAY BLVD SE","coordinates":[-106.6456,35.0754],"related_stops":["6456","6314"],"transfer_routes":["4227"],"related_routes":[]
    },"6316":{"name":"Broadway @ Hazeldine","desc":"BROADWAY BLVD SE \u0026 HAZELDINE AVE SE","coordinates":[-106.6457,35.0773],"related_stops":["6454","6316"],"transfer_routes":["4227"],"related_routes":[]
    },"6318":{"name":"Broadway @ Iron","desc":"BROADWAY BLVD SE \u0026 IRON AVE SE","coordinates":[-106.6454,35.079],"related_stops":["3485","6452","6318"],"transfer_routes":["4227"],"related_routes":["4256"]
    },"6322":{"name":"Broadway @ Martin Luther King","desc":"BROADWAY BLVD NE \u0026 MARTIN LUTHER KING AVE NE","coordinates":[-106.6439,35.0869],"related_stops":["1577","3757","1597","7678","6322"],"transfer_routes":["4227"],"related_routes":["4221","4240","4252"]
    },"6324":{"name":"University @ Indian School","desc":"UNIVERSITY BLVD NE \u0026 INDIAN SCHOOL RD NE","coordinates":[-106.6273,35.0985],"related_stops":["3741","6324"],"transfer_routes":["4227"],"related_routes":[]
    },"6326":{"name":"University @ Carrie Tingley Hospita","desc":"UNIVERSITY BLVD NE \u0026 CARRIE TINGLEY HOSPITAL","coordinates":[-106.6262,35.0936],"related_stops":["6326"],"transfer_routes":["4227"],"related_routes":[]
    },"6330":{"name":"University @ Lomas","desc":"UNIVERSITY BLVD NE \u0026 LOMAS BLVD NE","coordinates":[-106.6255,35.0899],"related_stops":["4063","7238","4065","6330","5079","1587","5662","7283"],"transfer_routes":["4221","4227"],"related_routes":["4239","4220","4252"]
    },"6332":{"name":"University @ Martin Luther King","desc":"UNIVERSITY BLVD NE \u0026 MARTIN LUTHER KING AVE NE","coordinates":[-106.6265,35.0837],"related_stops":["1583","1593","3773","7408","7410","6332"],"transfer_routes":["4227","4252"],"related_routes":["4221","4240"]
    },"6334":{"name":"University @ Central","desc":"UNIVERSITY BLVD NE \u0026 CENTRAL AVE E","coordinates":[-106.6269,35.0817],"related_stops":["4681","4683","6444","6446","7525","7510","6334","4457"],"transfer_routes":["4227","4252"],"related_routes":["4246","4248","4249"]
    },"6336":{"name":"University @ Silver","desc":"UNIVERSITY BLVD SE \u0026 SILVER AVE SE","coordinates":[-106.6274,35.0791],"related_stops":["6442","6336"],"transfer_routes":["4227","4252"],"related_routes":[]
    },"6338":{"name":"University @ Coal Pl.","desc":"UNIVERSITY BLVD SE \u0026 COAL PL SE","coordinates":[-106.6277,35.0776],"related_stops":["6440","6338"],"transfer_routes":["4227"],"related_routes":["4252"]
    },"6344":{"name":"University @ Shields-Research Park","desc":"UNIVERSITY BLVD SE \u0026 SHIELDS RESEARCH PARK","coordinates":[-106.6311,35.0706],"related_stops":["5646","6344"],"transfer_routes":["4227","4252"],"related_routes":[]
    },"6346":{"name":"(The Pit) University @ Avenida Cesar Chavez","desc":"UNIVERSITY BLVD SE \u0026 AVENIDA CESAR CHAVEZ  SE","coordinates":[-106.631,35.0681],"related_stops":["6346"],"transfer_routes":["4227"],"related_routes":[]
    },"6350":{"name":"University @ Sunshine Terrace","desc":"UNIVERSITY BLVD SE \u0026 SUNSHINE TERRACE AVE SE","coordinates":[-106.6315,35.0639],"related_stops":["6430","6350"],"transfer_routes":["4227"],"related_routes":[]
    },"6352":{"name":"University @ Gibson","desc":"0 UNIVERSITY BLVD SE \u0026 GIBSON BLVD. SE","coordinates":[-106.6316,35.0605],"related_stops":["2933","2935","6428","7422","6352"],"transfer_routes":["4227"],"related_routes":["4255"]
    },"6354":{"name":"Kathryn @ Yale","desc":"KATHRYN AVE SE \u0026 DICKERSON DR SE","coordinates":[-106.6214,35.0656],"related_stops":["3787","6424","3821","3823","6354","5652"],"transfer_routes":["4227"],"related_routes":["4240"]
    },"6356":{"name":"Kathryn @ Cornell","desc":"KATHRYN AVE SE \u0026 CORNELL DR SE","coordinates":[-106.6188,35.0656],"related_stops":["6422","6356"],"transfer_routes":["4227"],"related_routes":[]
    },"6362":{"name":"Girard @ Santa Monica","desc":"GIRARD BLVD SE \u0026 SANTA MONICA AVE SE","coordinates":[-106.6133,35.0706],"related_stops":["6418","6362"],"transfer_routes":["4227"],"related_routes":[]
    },"6364":{"name":"Girard @ Burton","desc":"GIRARD BLVD SE \u0026 BURTON AVE SE","coordinates":[-106.6133,35.0722],"related_stops":["6364"],"transfer_routes":["4227"],"related_routes":[]
    },"6366":{"name":"Girard @ Central","desc":"GIRARD BLVD SE \u0026 CENTRAL AVE SE","coordinates":[-106.6132,35.0802],"related_stops":["4671","4673","4669","3094","6366","4467","4465","5694"],"transfer_routes":["4227"],"related_routes":["4246"]
    },"6368":{"name":"Carlisle @ Coal","desc":"CARLISLE BLVD SE \u0026 COAL AVE SE","coordinates":[-106.6046,35.0759],"related_stops":["3497","6412","6368","3471"],"transfer_routes":["4227"],"related_routes":["4256"]
    },"6370":{"name":"Carlisle @ Garfield","desc":"CARLISLE BLVD SE \u0026 GARFIELD AVE SE","coordinates":[-106.6046,35.0738],"related_stops":["6410","6370"],"transfer_routes":["4227"],"related_routes":[]
    },"6372":{"name":"Carlisle @ Pershing","desc":"CARLISLE BLVD SE \u0026 PERSHING AVE SE","coordinates":[-106.6046,35.0702],"related_stops":["6372","6408"],"transfer_routes":["4227"],"related_routes":[]
    },"6374":{"name":"Carlisle @ San Rafael","desc":"CARLISLE BLVD SE \u0026 SAN RAFAEL AVE SE","coordinates":[-106.6047,35.0664],"related_stops":["6406","6374"],"transfer_routes":["4227"],"related_routes":[]
    },"6376":{"name":"Carlisle @ Anderson","desc":"CARLISLE BLVD SE \u0026 ANDERSON AVE SE","coordinates":[-106.6044,35.0636],"related_stops":["6404","6376"],"transfer_routes":["4227"],"related_routes":[]
    },"6378":{"name":"Carlisle @ Ross","desc":"CARLISLE BLVD SE \u0026 ROSS AVE SE","coordinates":[-106.6044,35.0621],"related_stops":["6402","6378"],"transfer_routes":["4227"],"related_routes":[]
    },"6380":{"name":"Carlisle @ Eastern","desc":"CARLISLE BLVD SE \u0026 EASTERN AVE SE","coordinates":[-106.6044,35.06],"related_stops":["6380"],"transfer_routes":["4227"],"related_routes":[]
    },"6382":{"name":"Gibson @ Truman","desc":"0 GIBSON BLVD SE \u0026 TRUMAN ST SE","coordinates":[-106.5907,35.0581],"related_stops":["2921","2947","6398","6382"],"transfer_routes":["4227"],"related_routes":["4255","4232"]
    },"6384":{"name":"Kentucky @ Gibson","desc":"KENTUCKY ST SE \u0026 GIBSON BLVD SE","coordinates":[-106.5699,35.0586],"related_stops":["6386","2807","2789","7344","2915","6384","2959"],"transfer_routes":["4227"],"related_routes":["4255","4226"]
    },"6386":{"name":"Eastern @ Louisiana","desc":"EASTERN AVE SE \u0026 LOUISIANA BLVD SE","coordinates":[-106.5691,35.0599],"related_stops":["6386","2807","2789","7344","2915","6384","2959"],"transfer_routes":["4227"],"related_routes":["4255","4226"]
    },"6388":{"name":"Gibson @ Dakota","desc":"GIBSON BLVD SE","coordinates":[-106.5738,35.0584],"related_stops":["2803","6388"],"transfer_routes":["4227","4255","4226"],"related_routes":[]
    },"6392":{"name":"Gibson @ Cardenas","desc":"GIBSON BLVD SE \u0026 CARDENAS DR SE","coordinates":[-106.5802,35.0585],"related_stops":["2955","6392","2953","6394"],"transfer_routes":["4227"],"related_routes":["4255","4232"]
    },"6394":{"name":"Gibson @ Valencia","desc":"GIBSON BLVD SE \u0026 VALENCIA DR","coordinates":[-106.5821,35.0585],"related_stops":["2955","6392","2953","6394"],"transfer_routes":["4227"],"related_routes":["4255","4232"]
    },"6398":{"name":"Gibson @ Jackson","desc":"GIBSON BLVD SE \u0026 JACKSON ST SE","coordinates":[-106.5913,35.0584],"related_stops":["2921","2947","6398","6382"],"transfer_routes":["4227"],"related_routes":["4255","4232"]
    },"6400":{"name":"Carlisle @ Gibson","desc":"CARLISLE BLVD SE \u0026 GIBSOM BLVD SE","coordinates":[-106.6042,35.0589],"related_stops":["2927","2941","7438","6400"],"transfer_routes":["4227"],"related_routes":["4255","4232"]
    },"6402":{"name":"Carlisle @ Vail","desc":"CARLISLE BLVD SE \u0026 VAIL AVE SE","coordinates":[-106.6042,35.0613],"related_stops":["6402","6378"],"transfer_routes":["4227"],"related_routes":[]
    },"6404":{"name":"Carlisle @ Simms","desc":"CARLISLE BLVD SE \u0026 SIMMS AVE SE","coordinates":[-106.6042,35.0635],"related_stops":["6404","6376"],"transfer_routes":["4227"],"related_routes":[]
    },"6406":{"name":"Carlisle @ Carlisle Pl.","desc":"CARLISLE BLVD SE \u0026 CARLISLE PL SE","coordinates":[-106.6042,35.0659],"related_stops":["6406","6374"],"transfer_routes":["4227"],"related_routes":[]
    },"6408":{"name":"Carlisle @ Pershing","desc":"CARLISLE BLVD SE \u0026 PERSHING AVE SE","coordinates":[-106.6043,35.0702],"related_stops":["6372","6408"],"transfer_routes":["4227"],"related_routes":[]
    },"6410":{"name":"Carlisle @ Garfield","desc":"CARLISLE BLVD SE \u0026 GARFIELD AVE SE","coordinates":[-106.6045,35.0738],"related_stops":["6410","6370"],"transfer_routes":["4227"],"related_routes":[]
    },"6412":{"name":"Carlisle @ Lead","desc":"CARLISLE BLVD SE \u0026 LEAD AVE SE","coordinates":[-106.6045,35.0768],"related_stops":["3497","6412","6368","3471"],"transfer_routes":["4227"],"related_routes":["4256"]
    },"6414":{"name":"Carlisle @ Central","desc":"CARLISLE BLVD SE \u0026 CENTRAL AVE SE","coordinates":[-106.6044,35.0791],"related_stops":["6414","4475","7474","5752"],"transfer_routes":["4227"],"related_routes":["4246"]
    },"6418":{"name":"Girard @ Monterey","desc":"GIRARD BLVD SE \u0026 MONTEREY AVE SE","coordinates":[-106.6134,35.071],"related_stops":["6418","6362"],"transfer_routes":["4227"],"related_routes":[]
    },"6422":{"name":"Kathryn @ Cromwell","desc":"KATHRYN AVE SE \u0026 CORNELL DR SE","coordinates":[-106.6187,35.0658],"related_stops":["6422","6356"],"transfer_routes":["4227"],"related_routes":[]
    },"6424":{"name":"Kathryn @ Yale","desc":"KATHRYN AVE SE \u0026 DICKERSON DR SE","coordinates":[-106.6213,35.0658],"related_stops":["3787","6424","3821","3823","6354","5652"],"transfer_routes":["4227"],"related_routes":["4240"]
    },"6428":{"name":"University @ Eastern","desc":"UNIVERSITY BLVD SE \u0026 EASTERN AVE SE","coordinates":[-106.6316,35.0615],"related_stops":["2933","2935","6428","7422","6352"],"transfer_routes":["4227"],"related_routes":["4255"]
    },"6430":{"name":"University @ Sunshine Terrace","desc":"UNIVERSITY BLVD SE \u0026 SUNSHINE TERRACE AVE SE","coordinates":[-106.6311,35.0641],"related_stops":["6430","6350"],"transfer_routes":["4227"],"related_routes":[]
    },"6432":{"name":"Avenida Cesar Chavez","desc":"0 UNIVERSITY BLVD SE \u0026 AVENIDA CESAR CHAVEZ SE","coordinates":[-106.6307,35.0664],"related_stops":["6432"],"transfer_routes":["4227"],"related_routes":[]
    },"6436":{"name":"University @ Basehart (C.N.M.)","desc":"UNIVERSITY BLVD SE \u0026 BASEHART SE","coordinates":[-106.6295,35.0733],"related_stops":["7426","6436"],"transfer_routes":["4227","4252"],"related_routes":[]
    },"6438":{"name":"University @ Coal","desc":"UNIVERSITY BLVD SE \u0026 COAL AVE SE","coordinates":[-106.6274,35.076],"related_stops":["3491","7428","3185","6438"],"transfer_routes":["4227"],"related_routes":["4256"]
    },"6440":{"name":"University @ Coal Place","desc":"UNIVERSITY BLVD SE \u0026 COAL PL SE","coordinates":[-106.6274,35.0773],"related_stops":["6440","6338"],"transfer_routes":["4227","4252"],"related_routes":[]
    },"6442":{"name":"University @ Silver","desc":"UNIVERSITY BLVD SE \u0026 SILVER AVE SE","coordinates":[-106.627,35.0796],"related_stops":["6442","6336"],"transfer_routes":["4227"],"related_routes":["4252"]
    },"6444":{"name":"University @ Central","desc":"UNIVERSITY BLVD SE \u0026 CENTRAL AVE E","coordinates":[-106.6267,35.081],"related_stops":["4681","4683","6444","6446","7525","7510","6334","4457"],"transfer_routes":["4227"],"related_routes":["4246","4252","4248","4249"]
    },"6446":{"name":"University @ Central","desc":"UNIVERSITY BLVD NE \u0026 CENTRAL AVE E","coordinates":[-106.6266,35.0817],"related_stops":["4681","4683","6444","6446","7525","7510","6334","4457"],"transfer_routes":["4227","4252"],"related_routes":["4246","4248","4249"]
    },"6448":{"name":"Broadway @ Central","desc":"BROADWAY BLVD SE \u0026 CENTRAL AVE SE","coordinates":[-106.6449,35.0832],"related_stops":["6448","4443"],"transfer_routes":["4227"],"related_routes":["4246"]
    },"6450":{"name":"Broadway @ Silver","desc":"BROADWAY BLVD SE \u0026 SILVER AVE SE","coordinates":[-106.6451,35.0818],"related_stops":["6450"],"transfer_routes":["4227"],"related_routes":[]
    },"6452":{"name":"Broadway @ Coal","desc":"BROADWAY BLVD SE \u0026 COAL AVE SE","coordinates":[-106.6457,35.0793],"related_stops":["3485","6452","6318"],"transfer_routes":["4227"],"related_routes":["4256"]
    },"6454":{"name":"Broadway @ Hazeldine","desc":"BROADWAY BLVD SE \u0026 HAZELDINE AVE SE","coordinates":[-106.6459,35.0772],"related_stops":["6454","6316"],"transfer_routes":["4227"],"related_routes":[]
    },"6456":{"name":"Broadway @ Pacific","desc":"BROADWAY BLVD SE \u0026 PACIFIC AVE SE","coordinates":[-106.6458,35.0747],"related_stops":["6456","6314"],"transfer_routes":["4227"],"related_routes":[]
    },"6458":{"name":"Broadway @ Cromwell","desc":"0 BROADWAY BLVD SE \u0026 CROMWELL AVE SE","coordinates":[-106.6458,35.0726],"related_stops":["6458","6312"],"transfer_routes":["4227"],"related_routes":[]
    },"6460":{"name":"Broadway @ Bell","desc":"BROADWAY BLVD SE \u0026 BELL AVE SE","coordinates":[-106.6457,35.0708],"related_stops":["6460","6462","6310"],"transfer_routes":["4227"],"related_routes":[]
    },"6462":{"name":"Broadway @ Trumbull","desc":"BROADWAY BLVD SE \u0026 TRUMBULL AVE SE","coordinates":[-106.6457,35.0691],"related_stops":["6460","6462","6310"],"transfer_routes":["4227"],"related_routes":[]
    },"6464":{"name":"Trumbull @ Jesus","desc":"TRUMBULL AVE SE \u0026 JESUS ST SE","coordinates":[-106.6478,35.0686],"related_stops":["6464"],"transfer_routes":["4227"],"related_routes":[]
    },"6468":{"name":"Williams @ Lily","desc":"WILLIAM ST SE \u0026 LILY AVE SE","coordinates":[-106.649,35.0665],"related_stops":["6468"],"transfer_routes":["4227"],"related_routes":[]
    },"6470":{"name":"Williams @ Ogle","desc":"WILLIAM ST SE \u0026 OGLE AVE SE","coordinates":[-106.6493,35.0647],"related_stops":["6470"],"transfer_routes":["4227"],"related_routes":[]
    },"6472":{"name":"Williams @ Thaxton","desc":"WILLIAM ST SE \u0026 THAXTON AVE SE","coordinates":[-106.6499,35.0619],"related_stops":["6472"],"transfer_routes":["4227"],"related_routes":[]
    },"6474":{"name":"Williams @ Hosher","desc":"WILLIAM ST SE \u0026 HOSHOR AVE SE","coordinates":[-106.6502,35.06],"related_stops":["6474"],"transfer_routes":["4227"],"related_routes":[]
    },"6476":{"name":"Williams @ Romana","desc":"WILLIAM ST SE \u0026 ROMANA AVE SE","coordinates":[-106.6512,35.0578],"related_stops":["6476"],"transfer_routes":["4227"],"related_routes":[]
    },"6478":{"name":"William @ Wheeler","desc":"WILLIAM ST SE \u0026 WHEELER AVE SE","coordinates":[-106.652,35.0569],"related_stops":["6478"],"transfer_routes":["4227"],"related_routes":[]
    },"6494":{"name":"San Mateo @ Gibson","desc":"SAN MATEO BLVD SE \u0026 GIBSON BLVD SE","coordinates":[-106.5864,35.0591],"related_stops":["2919","2949","2951","6516","6494","7228"],"transfer_routes":["4223","4224"],"related_routes":["4227","4255","4232"]
    },"6516":{"name":"San Mateo @ Eastern","desc":"SAN MATEO BLVD SE \u0026 EASTERN AVE SE","coordinates":[-106.5866,35.0596],"related_stops":["2919","2949","2951","6516","6494","7228"],"transfer_routes":["4223","4224"],"related_routes":["4227","4255","4232"]
    },"6930":{"name":"A.T.C.  (Bay B)","desc":"","coordinates":[-106.6476,35.0835],"related_stops":["6930","6932","4841","4831","4843","4833","4845","4703","4835","4441","6972","4847","4837","7507","7528"],"transfer_routes":["4237"],"related_routes":["4239","4247","4251","4219","4220","4221","4227","4240","4242","4243","4246","4256","4248","4249"]
    },"6932":{"name":"A.T.C.  (Bay A)","desc":"ATC BAY A \u0026 1ST ST SW","coordinates":[-106.6477,35.0833],"related_stops":["6930","6932","4841","4831","4843","4833","4845","4703","4835","4441","6972","4847","4837","7507","7528"],"transfer_routes":["4240"],"related_routes":["4239","4247","4251","4219","4220","4221","4227","4237","4242","4243","4246","4256","4248","4249"]
    },"6966":{"name":"2nd @ Marquette (Convention Center)","desc":"2ND ST NW \u0026 MARQUETTE AVE NW","coordinates":[-106.6485,35.0877],"related_stops":["1575","6966"],"transfer_routes":["4239","4219","4220"],"related_routes":["4247","4221","4227","4240","4252"]
    },"6972":{"name":"A.T.C.  (Bay N)","desc":"ATC BAY N \u0026 1ST ST SW","coordinates":[-106.648,35.0827],"related_stops":["6930","6932","4841","4831","4843","4833","4845","4703","4835","4441","6972","4847","4837","7507","7528"],"transfer_routes":["4247","4227"],"related_routes":["4239","4251","4219","4220","4221","4237","4240","4242","4243","4246","4256","4248","4249"]
    },"7022":{"name":"Tijeras @ 2nd","desc":"TIJERAS AVE NW \u0026 2ND ST NW","coordinates":[-106.6483,35.0862],"related_stops":["1729","7022"],"transfer_routes":["4221","4227","4240","4252"],"related_routes":["4239","4247","4219","4220"]
    },"7228":{"name":"Gibson @ Madeira","desc":"GIBSON BLVD SE \u0026 MADEIRA DR SE","coordinates":[-106.584,35.0585],"related_stops":["2919","2949","2951","6516","6494","7228"],"transfer_routes":["4227"],"related_routes":["4255","4223","4224","4232"]
    },"7238":{"name":"Lomas @ Yale","desc":"LOMAS BLVD NE \u0026 YALE BLVD NE","coordinates":[-106.6214,35.0884],"related_stops":["4063","7238","4065","6330","5079","1587","5662","7283"],"transfer_routes":["4239","4220","4221"],"related_routes":["4227","4252"]
    },"7258":{"name":"Girard @ San Rafael","desc":"0 GIRARD BLVD SE \u0026 SAN RAFAEL AVE SE","coordinates":[-106.6134,35.0682],"related_stops":["7258","7260"],"transfer_routes":["4227"],"related_routes":[]
    },"7260":{"name":"Girard @ Hyder","desc":"GIRARD BLVD SE \u0026 HYDER AVE SE","coordinates":[-106.6133,35.068],"related_stops":["7258","7260"],"transfer_routes":["4227"],"related_routes":[]
    },"7262":{"name":"Girard @ Kathryn","desc":"GIRARD BLVD SE \u0026 KATHRYN AVE SE","coordinates":[-106.6131,35.0657],"related_stops":["7262"],"transfer_routes":["4227"],"related_routes":[]
    },"7283":{"name":"University @ Lomas","desc":"UNIVERSITY BLVD NE \u0026 LOMAS BLVD NE","coordinates":[-106.6252,35.091],"related_stops":["4063","7238","4065","6330","5079","1587","5662","7283"],"transfer_routes":["4227"],"related_routes":["4239","4220","4221","4252"]
    },"7320":{"name":"Yale @ Ross","desc":"YALE BLVD SE \u0026 ROSS AVE SE","coordinates":[-106.6221,35.0621],"related_stops":["3819","7320"],"transfer_routes":["4227","4240"],"related_routes":[]
    },"7344":{"name":"Louisiana @ Gibson","desc":"LOUISIANA BLVD SE \u0026 GIBSON BLVD SE","coordinates":[-106.5687,35.059],"related_stops":["6386","2807","2789","7344","2915","6384","2959"],"transfer_routes":["4226"],"related_routes":["4227","4255"]
    },"7408":{"name":"Redondo @ UNM Engineering Bldg.","desc":"REDONDO WEST DR NE \u0026 MARTIN LUTHER KING AVE NE","coordinates":[-106.6261,35.0834],"related_stops":["1583","1593","3773","7408","7410","6332"],"transfer_routes":["4240"],"related_routes":["4221","4227","4252"]
    },"7410":{"name":"Redondo @ UNM Engineering Bldg","desc":"REDONDO WEST DR NE \u0026 MARTIN LUTHER KING AVE NE","coordinates":[-106.626,35.0834],"related_stops":["1583","1593","3773","7408","7410","6332"],"transfer_routes":["4240"],"related_routes":["4221","4227","4252"]
    },"7422":{"name":"University @ Eastern","desc":"UNIVERSITY BLVD SE \u0026 EASTERN AVE SE","coordinates":[-106.631,35.0601],"related_stops":["2933","2935","6428","7422","6352"],"transfer_routes":["4227"],"related_routes":["4255"]
    },"7424":{"name":"University @ UNM Pit / Lobo Stadium","desc":"UNIVERSITY BLVD SE \u0026 LOBO STADIUM","coordinates":[-106.631,35.0654],"related_stops":["7424"],"transfer_routes":["4227"],"related_routes":[]
    },"7426":{"name":"University @ Basehart","desc":"UNIVERSITY BLVD SE \u0026 BASEHART  SE","coordinates":[-106.6298,35.0734],"related_stops":["7426","6436"],"transfer_routes":["4227"],"related_routes":["4252"]
    },"7428":{"name":"University @ Coal","desc":"UNIVERSITY BLVD SE \u0026 COAL AVE SE","coordinates":[-106.628,35.0755],"related_stops":["3491","7428","3185","6438"],"transfer_routes":["4227"],"related_routes":["4256"]
    },"7438":{"name":"Gibson @ Carlisle","desc":"GIBSON BLVD SE \u0026 CARLISLE BLVD SE","coordinates":[-106.603,35.0584],"related_stops":["2927","2941","7438","6400"],"transfer_routes":["4227","4255"],"related_routes":["4232"]
    },"7474":{"name":"Central @ Carlisle","desc":"CENTRAL AVE E \u0026 CARLISLE BLVD SE","coordinates":[-106.604,35.0798],"related_stops":["6414","4475","7474","5752"],"transfer_routes":["4246"],"related_routes":["4227"]
    },"7507":{"name":"ART - Alvarado Transportation Center","desc":"1ST ST SW \u0026 CENTRAL AVE SW","coordinates":[-106.6481,35.0835],"related_stops":["6930","6932","4841","4831","4843","4833","4845","4703","4835","4441","6972","4847","4837","7507","7528"],"transfer_routes":["4248","4249"],"related_routes":["4239","4247","4251","4219","4220","4221","4227","4237","4240","4242","4243","4246","4256"]
    },"7510":{"name":"ART - UNM / CNM Station","desc":"CENTRAL AVE SE \u0026 UNIVERSITY BLVD SE","coordinates":[-106.6264,35.0813],"related_stops":["4681","4683","6444","6446","7525","7510","6334","4457"],"transfer_routes":["4248","4249"],"related_routes":["4227","4246","4252"]
    },"7512":{"name":"ART - Nob Hill Station","desc":"BRYN MAWR DR NE \u0026 CENTRAL AVE E","coordinates":[-106.6095,35.0805],"related_stops":["7523","5692","7512"],"transfer_routes":["4248","4249"],"related_routes":["4227","4246"]
    },"7523":{"name":"ART - Nob Hill Station","desc":"BRYN MAWR DR NE \u0026 CENTRAL AVE E","coordinates":[-106.6096,35.0805],"related_stops":["7523","5692","7512"],"transfer_routes":["4248","4249"],"related_routes":["4227","4246"]
    },"7525":{"name":"ART - UNM / CNM Station","desc":"CENTRAL AVE E \u0026 UNIVERSITY BLVD SE","coordinates":[-106.6265,35.0813],"related_stops":["4681","4683","6444","6446","7525","7510","6334","4457"],"transfer_routes":["4248","4249"],"related_routes":["4227","4246","4252"]
    },"7528":{"name":"ART - Downtown Station","desc":"1ST ST NW \u0026 COPPER AVE NW","coordinates":[-106.648,35.0848],"related_stops":["6930","6932","4841","4831","4843","4833","4845","4703","4835","4441","6972","4847","4837","7507","7528"],"transfer_routes":["4248","4249"],"related_routes":["4239","4247","4251","4219","4220","4221","4227","4237","4240","4242","4243","4246","4256"]
    },"7670":{"name":"San Jose @ Williams","desc":"SAN JOSE AVE SE \u0026 TOPEKA ST SE","coordinates":[-106.6509,35.0548],"related_stops":["7670"],"transfer_routes":["4227"],"related_routes":[]
    },"7672":{"name":"San Jose @ Broadway","desc":"SAN JOSE AVE SE \u0026 BROADWAY BLVD SE","coordinates":[-106.6471,35.0548],"related_stops":["7672","6296"],"transfer_routes":["4227"],"related_routes":[]
    },"7676":{"name":"University @ Camino de Salud","desc":"UNIVERSITY BLVD NE \u0026 CAMINO DE SALUD  NE","coordinates":[-106.6264,35.0955],"related_stops":["7676","5748"],"transfer_routes":["4227"],"related_routes":[]
    },"7678":{"name":"Broadway @ Martin Luther King","desc":"BROADWAY BLVD NE \u0026 MARTIN LUTHER KING AVE NE","coordinates":[-106.6442,35.0868],"related_stops":["1577","3757","1597","7678","6322"],"transfer_routes":["4227"],"related_routes":["4221","4240","4252"]
    },"7686":{"name":"Broadway @ Lomas","desc":"BROADWAY BLVD NE \u0026 LOMAS BLVD NE","coordinates":[-106.6435,35.0898],"related_stops":["5091","3755","4849","3519","4851","7686","5089"],"transfer_routes":["4227"],"related_routes":["4220"]
    }
  },
  "trip_data": {
    "shapes": {
      "709e4": {
        "bearing": 265.33,"centroid":[-106.6267,35.0752],
        "bounds": [[-106.6524,35.0548],[0.0,35.0992]
        ],"coordinates":[[-106.56991700003535,35.060013],[-106.56993000003534,35.058526],[-106.56991600003535,35.060011],[-106.56877500003515,35.060033],[-106.56876400003515,35.058216],[-106.58534200003798,35.058358],[-106.58647400003818,35.058346],[-106.58706800003829,35.058191],[-106.60430200004146,35.058264],[-106.60427600004147,35.065598],[-106.60448900004151,35.066168],[-106.60450600004151,35.066887],[-106.60451600004156,35.079768],[-106.61316100004323,35.081027],[-106.61329300004326,35.08086],[-106.61338500004322,35.067733],[-106.6131550000432,35.065484],[-106.61714100004397,35.065456],[-106.61865000004427,35.065694],[-106.62199900004495,35.0657],[-106.62201500004493,35.058447],[-106.63079700004674,35.058495],[-106.63087800004675,35.059504],[-106.63171500004694,35.061051],[-106.63175300004696,35.062339],[-106.6315150000469,35.063778],[-106.63102200004681,35.064912],[-106.63088800004678,35.066003],[-106.6308850000468,35.071544],[-106.6304200000467,35.072453],[-106.62755200004611,35.075939],[-106.62753300004611,35.077403],[-106.62655600004592,35.082919],[-106.6259000000458,35.084978],[-106.6253810000457,35.087755],[-106.62525500004568,35.090298],[-106.62537300004571,35.091738],[-106.62650500004595,35.094968],[-106.626645000046,35.09688],[-106.62736600004615,35.09899],[-106.62875500004644,35.098254],[-106.6300020000467,35.09795],[-106.63227200004718,35.09785],[-106.63733700004826,35.098997],[-106.63952400004872,35.099175],[-106.64173000004921,35.098983],[-106.64408100004968,35.086305],[-106.64578300005005,35.086723],[-106.64789600005054,35.087734],[-106.64838900005063,35.087862],[-106.64854700005067,35.087896],[-106.64942800005086,35.083249],[-106.6482220000506,35.083078],[-106.64794100005052,35.083046],[-106.64770600005048,35.083823],[-106.64746300005042,35.083822],[-106.64764400005045,35.0825],[-106.6483300000506,35.082564],[-106.6482210000506,35.083076],[-106.64813700005058,35.083582],[-106.64806100005055,35.084086],[-106.64461800004979,35.083644],[-106.64580100005003,35.077519],[-106.64552700004994,35.068623],[-106.64852000005061,35.068542],[-106.65036400005098,35.058775],[-106.65158200005126,35.056982],[-106.65205400005136,35.056794],[-106.65244600005144,35.054926],[-106.64750100005034,35.054822]],
        "distances": [0.0,0.167,0.167,0.27,0.473,1.9723,2.0753,2.1309,3.69,4.5111,4.5781,4.6582,6.0993,6.8941,6.9166,8.3859,8.6381,8.9992,9.1391,9.4421,10.2543,11.0484,11.1619,11.3513,11.4954,11.658,11.7924,11.915,12.5352,12.6461,13.1148,13.279,13.902,14.1414,14.4558,14.7401,14.9017,15.2775,15.4926,15.7379,15.8874,16.0057,16.2117,16.6871,16.8862,17.0865,18.5209,18.6817,18.9051,18.9513,18.9668,19.4927,19.6033,19.6296,19.7237,19.7458,19.899,19.9614,20.0201,20.0767,20.134,20.45,21.1441,22.1396,22.4108,23.5167,23.7459,23.7938,24.006,24.4532]
      },
      "d1829": {
        "bearing": 86.66,"centroid":[-106.6275,35.0759],
        "bounds": [[-106.6498,35.0548],[0.0,35.0992]
        ],"coordinates":[[-106.64750100005034,35.054822],[-106.64527900004984,35.054778],[-106.64523500004982,35.055134],[-106.64517400004982,35.057157],[-106.64580500005002,35.077053],[-106.6452090000499,35.080705],[-106.64979200005094,35.08129],[-106.64942800005086,35.083249],[-106.64794100005052,35.083046],[-106.6478860000505,35.082983],[-106.64797600005053,35.082536],[-106.6483300000506,35.082564],[-106.6482220000506,35.083078],[-106.64942800005086,35.083249],[-106.64881400005073,35.086461],[-106.64833100005062,35.086262],[-106.64746800005044,35.085569],[-106.64642500005019,35.085216],[-106.64408100004968,35.086305],[-106.64173000004921,35.098983],[-106.63952400004872,35.099175],[-106.63733700004826,35.098997],[-106.63227200004718,35.09785],[-106.6300020000467,35.09795],[-106.62875500004644,35.098254],[-106.62736600004615,35.09899],[-106.626645000046,35.09688],[-106.62650500004595,35.094968],[-106.62537300004571,35.091738],[-106.62525500004568,35.090298],[-106.6253810000457,35.087755],[-106.6259000000458,35.084978],[-106.62655600004592,35.082919],[-106.62753300004611,35.077403],[-106.62755200004611,35.075939],[-106.6304200000467,35.072453],[-106.6308850000468,35.071544],[-106.63088800004678,35.066003],[-106.63102200004681,35.064912],[-106.6315150000469,35.063778],[-106.63175300004696,35.062339],[-106.63171500004694,35.061051],[-106.63087800004675,35.059504],[-106.63079700004674,35.058495],[-106.62201500004493,35.058447],[-106.62199900004495,35.0657],[-106.61865000004427,35.065694],[-106.61714100004397,35.065456],[-106.6131550000432,35.065484],[-106.61338500004322,35.067733],[-106.61329300004326,35.08086],[-106.61316100004323,35.081027],[-106.60451600004156,35.079768],[-106.60450600004151,35.066887],[-106.60448900004151,35.066168],[-106.60427600004147,35.065598],[-106.60430200004146,35.058264],[-106.58706800003829,35.058191],[-106.58647400003818,35.058346],[-106.58534200003798,35.058358],[-106.56992400003533,35.058215],[-106.56993000003534,35.058526]],
        "distances": [0.0,0.2011,0.2413,0.4675,2.6945,3.1074,3.5263,3.7486,3.8856,3.8942,3.9448,3.977,3.8593,3.7486,4.5095,4.5581,4.6688,4.7715,5.0191,6.4536,6.6539,6.8529,7.3284,7.5344,7.6527,7.8022,8.0474,8.2626,8.6384,8.7999,9.0843,9.3987,9.6381,10.2611,10.4253,10.894,11.0049,11.6251,11.7477,11.8821,12.0447,12.1887,12.3782,12.4917,13.2858,14.0979,14.401,14.5408,14.902,15.1542,16.6235,16.6459,17.4408,18.8819,18.9619,19.029,19.8501,21.4091,21.4648,21.5678,22.9621,22.9961]
      }
    },
    "stop_lists": {
      "f57ca": ["6384","6386","2915","6388","2917","6392","6394","7228","2919","2921","6398","2923","7438","6400","6402","6404","6406","6408","6410","6412","6414","5690","5692","3094","6418","7258","6422","6424","5652","7320","3795","5670","5664","7422","6428","6430","6432","5646","6436","6438","6440","6442","6444","6446","1583","1585","3849","7283","7676","3741","3743","3745","3747","3749","3751","7686","7678","1575","1729","4833","6448","6450","6452","6454","6456","6458","6460","6462","6464","6468","6470","6472","6474","6476","6478","7670","7672"],
      "52184": ["7672","6296","6300","6302","6304","6306","6308","6310","6312","6314","6316","6318","6972","7022","6322","3519","3521","3523","5816","3529","3531","6324","5748","6326","6330","4067","6332","6334","6336","6338","7428","7426","6344","6346","7424","6350","6352","2935","3817","3819","3821","6354","6356","7262","7260","6362","6364","6366","5694","4471","5752","6368","6370","6372","6374","6376","6378","6380","2941","2943","2945","6382","2947","2949","2951","2953","2955","2957","2801","2803","6384"]
    },
    "stop_times": {
      "cacfb": [0,21,46,82,109,134,149,164,180,211,232,271,339,360,403,440,483,560,625,677,718,770,806,868,1034,1083,1214,1260,1291,1329,1382,1397,1437,1535,1561,1607,1644,1705,1764,1818,1838,1877,1901,1920,1976,2020,2055,2100,2181,2245,2348,2400,2449,2496,2534,2590,2637,2718,2754,2820,3010,3043,3107,3158,3219,3270,3316,3360,3406,3459,3494,3549,3587,3634,3658,3721,3780],
      "42d4c": [0,26,82,118,137,173,205,240,284,347,384,418,600,693,769,832,883,912,960,1006,1058,1171,1231,1252,1320,1360,1410,1440,1484,1509,1545,1588,1638,1680,1726,1751,1809,1855,1980,2025,2059,2100,2137,2221,2261,2305,2333,2471,2507,2568,2626,2676,2713,2776,2842,2891,2915,2952,3000,3019,3082,3123,3138,3160,3180,3215,3234,3261,3285,3307,3360],
      "87d30": [0,26,82,118,137,173,205,240,284,347,384,418,600,693,769,832,883,912,960,1006,1058,1171,1231,1252,1320,1360,1410,1440,1476,1496,1525,1560,1601,1635,1673,1693,1741,1778,1880,1916,1944,1980,2014,2093,2130,2171,2197,2326,2359,2416,2470,2516,2550,2609,2671,2717,2740,2774,2820,2839,2902,2943,2958,2980,3000,3035,3054,3081,3105,3127,3180],
      "3cabd": [0,26,82,118,137,173,205,240,284,347,384,418,600,701,784,852,907,939,991,1041,1097,1219,1284,1307,1380,1420,1470,1500,1540,1563,1596,1635,1680,1718,1760,1783,1836,1878,1992,2033,2064,2100,2142,2237,2282,2332,2364,2520,2560,2629,2695,2752,2793,2865,2940,2996,3024,3066,3120,3139,3202,3243,3258,3280,3300,3335,3354,3381,3405,3427,3480],
      "ff0d7": [0,21,46,82,109,134,149,164,180,211,232,271,339,360,403,440,483,560,625,677,718,770,806,868,1034,1083,1214,1260,1293,1335,1393,1409,1452,1559,1588,1638,1678,1745,1809,1868,1890,1933,1959,1980,2036,2080,2115,2160,2241,2305,2408,2460,2509,2556,2594,2650,2697,2778,2814,2880,3091,3128,3199,3256,3323,3379,3430,3480,3526,3579,3614,3669,3707,3754,3778,3841,3900],
      "6ba13": [0,26,82,118,137,173,205,240,284,347,384,418,600,693,769,832,883,912,960,1006,1058,1171,1231,1252,1320,1360,1410,1440,1480,1503,1536,1575,1620,1658,1700,1723,1776,1818,1932,1973,2004,2040,2074,2153,2190,2231,2257,2386,2419,2476,2530,2576,2610,2669,2731,2777,2800,2834,2880,2899,2962,3003,3018,3040,3060,3095,3114,3141,3165,3187,3240],
      "88766": [0,26,82,118,137,173,205,240,284,347,384,418,600,709,798,871,930,964,1020,1074,1134,1266,1336,1361,1440,1480,1530,1560,1604,1629,1665,1708,1758,1800,1846,1871,1929,1975,2100,2145,2179,2220,2262,2357,2402,2452,2484,2640,2680,2749,2815,2872,2913,2985,3060,3116,3144,3186,3240,3259,3322,3363,3378,3400,3420,3455,3474,3501,3525,3547,3600],
      "666a5": [0,26,82,118,137,173,205,240,284,347,384,418,600,693,769,832,883,912,960,1006,1058,1171,1231,1252,1320,1360,1410,1440,1480,1503,1536,1575,1620,1658,1700,1723,1776,1818,1932,1973,2004,2040,2077,2161,2201,2245,2273,2411,2447,2508,2566,2616,2653,2716,2782,2831,2855,2892,2940,2959,3022,3063,3078,3100,3120,3155,3174,3201,3225,3247,3300],
      "25feb": [0,21,46,82,109,134,149,164,180,201,215,241,286,300,340,375,415,487,548,597,636,685,719,777,932,978,1100,1140,1168,1203,1251,1264,1300,1389,1413,1455,1489,1545,1599,1648,1666,1702,1724,1740,1796,1840,1875,1920,2001,2065,2168,2220,2269,2316,2354,2410,2457,2538,2574,2640,2851,2888,2959,3016,3083,3139,3190,3240,3286,3339,3374,3429,3467,3514,3538,3601,3660],
      "a0f53": [0,21,46,82,109,134,149,164,180,201,215,241,286,300,340,375,415,487,548,597,636,685,719,777,932,978,1100,1140,1168,1203,1251,1264,1300,1389,1413,1455,1489,1545,1599,1648,1666,1702,1724,1740,1796,1840,1875,1920,1995,2054,2149,2196,2241,2284,2319,2370,2413,2487,2520,2580,2770,2803,2867,2918,2979,3030,3076,3120,3166,3219,3254,3309,3347,3394,3418,3481,3540],
      "5d994": [0,21,46,82,109,134,149,164,180,201,215,241,286,300,340,375,415,487,548,597,636,685,719,777,932,978,1100,1140,1168,1203,1251,1264,1300,1389,1413,1455,1489,1545,1599,1648,1666,1702,1724,1740,1796,1840,1875,1920,1995,2054,2149,2196,2241,2284,2319,2370,2413,2487,2520,2580,2749,2778,2835,2880,2934,2979,3020,3060,3106,3159,3194,3249,3287,3334,3358,3421,3480],
      "cbb40": [0,21,46,82,109,134,149,164,180,211,232,271,339,360,403,440,483,560,625,677,718,770,806,868,1034,1083,1214,1260,1288,1323,1371,1384,1420,1509,1533,1575,1609,1665,1719,1768,1786,1822,1844,1860,1916,1960,1995,2040,2115,2174,2269,2316,2361,2404,2439,2490,2533,2607,2640,2700,2890,2923,2987,3038,3099,3150,3196,3240,3286,3339,3374,3429,3467,3514,3538,3601,3660],
      "c0dec": [0,26,82,118,137,173,205,240,284,347,384,418,600,701,784,852,907,939,991,1041,1097,1219,1284,1307,1380,1420,1470,1500,1540,1563,1596,1635,1680,1718,1760,1783,1836,1878,1992,2033,2064,2100,2134,2213,2250,2291,2317,2446,2479,2536,2590,2636,2670,2729,2791,2837,2860,2894,2940,2959,3022,3063,3078,3100,3120,3155,3174,3201,3225,3247,3300]
    },
    "stop_distances": {
      "543a6": [0.0,0.244,0.526,0.926,1.2311,1.5092,1.6833,1.8523,1.9993,2.3109,2.5179,2.9009,3.575,3.761,4.035,4.272,4.5415,5.0242,5.4363,5.7643,6.0253,6.3558,6.5847,6.9766,8.0157,8.3268,9.1471,9.3811,9.5882,9.8452,10.2003,10.3003,10.5673,11.2246,11.4014,11.7095,11.959,12.37,12.7657,13.1288,13.264,13.5293,13.6909,13.7708,14.0914,14.3425,14.5409,14.8142,15.3409,15.7792,16.4788,16.8301,17.1643,17.4881,17.7459,18.1256,18.4635,18.9952,19.2426,19.6465,20.5071,20.659,20.9493,21.1822,21.4583,21.6894,21.8995,22.0835,22.3457,22.645,22.8471,23.1607,23.3803,23.6509,23.788,24.1441,24.4532],
      "b24fe": [0.0,0.2043,0.6476,0.9297,1.0827,1.3669,1.624,1.8741,2.1242,2.4774,2.6855,2.88,3.8917,4.5303,5.0548,5.4855,5.8341,6.0364,6.3691,6.6861,7.043,7.8171,8.2285,8.3771,8.4753,8.7913,9.1841,9.4097,9.7058,9.8744,10.1157,10.4019,10.7363,11.0174,11.3248,11.4927,11.8819,12.189,13.0191,13.3182,13.5452,13.7782,14.0162,14.5583,14.8175,15.1037,15.2887,16.1737,16.4043,16.7992,17.1741,17.4961,17.7331,18.1402,18.5682,18.8863,19.0463,19.2853,19.5394,19.7204,20.3214,20.7124,20.8634,21.0722,21.2401,21.5141,21.6611,21.8762,22.0612,22.2363,22.6243]
    },
    "dwell_times": {
      "f3ae5": [0,0,0,0,0,0,0,0,0,0,0,0,0,0,0,0,0,0,0,0,0,0,0,0,0,0,0,0,0,0,0,0,0,0,0,0,0,0,0,0,0,0,0,0,0,0,0,0,0,0,0,0,0,0,0,0,0,0,0,0,0,0,0,0,0,0,0,0,0,0,0],
      "a2a5b": [0,0,0,0,0,0,0,0,0,0,0,0,0,0,0,0,0,0,0,0,0,0,0,0,0,0,0,0,0,0,0,0,0,0,0,0,0,0,0,0,0,0,0,0,0,0,0,0,0,0,0,0,0,0,0,0,0,0,0,0,0,0,0,0,0,0,0,0,0,0,0,0,0,0,0,0,0]
    },
    "trips": {
      "1": [
        {"id":"547923","direction":0,"start_time":23160,"stops_key":"f57ca","stop_distances":"543a6","stop_times":"5d994","stop_dwells":"a2a5b","shape_key":"709e4"},
        {"id":"547922","direction":0,"start_time":25740,"stops_key":"f57ca","stop_distances":"543a6","stop_times":"cbb40","stop_dwells":"a2a5b","shape_key":"709e4"},
        {"id":"547921","direction":0,"start_time":28620,"stops_key":"f57ca","stop_distances":"543a6","stop_times":"cbb40","stop_dwells":"a2a5b","shape_key":"709e4"},
        {"id":"547920","direction":0,"start_time":31620,"stops_key":"f57ca","stop_distances":"543a6","stop_times":"cbb40","stop_dwells":"a2a5b","shape_key":"709e4"},
        {"id":"547919","direction":0,"start_time":34500,"stops_key":"f57ca","stop_distances":"543a6","stop_times":"cbb40","stop_dwells":"a2a5b","shape_key":"709e4"},
        {"id":"547918","direction":0,"start_time":37380,"stops_key":"f57ca","stop_distances":"543a6","stop_times":"cacfb","stop_dwells":"a2a5b","shape_key":"709e4"},
        {"id":"547917","direction":0,"start_time":40320,"stops_key":"f57ca","stop_distances":"543a6","stop_times":"cacfb","stop_dwells":"a2a5b","shape_key":"709e4"},
        {"id":"547916","direction":0,"start_time":43020,"stops_key":"f57ca","stop_distances":"543a6","stop_times":"cacfb","stop_dwells":"a2a5b","shape_key":"709e4"},
        {"id":"547915","direction":0,"start_time":45780,"stops_key":"f57ca","stop_distances":"543a6","stop_times":"ff0d7","stop_dwells":"a2a5b","shape_key":"709e4"},
        {"id":"547914","direction":0,"start_time":49020,"stops_key":"f57ca","stop_distances":"543a6","stop_times":"ff0d7","stop_dwells":"a2a5b","shape_key":"709e4"},
        {"id":"547913","direction":0,"start_time":51840,"stops_key":"f57ca","stop_distances":"543a6","stop_times":"ff0d7","stop_dwells":"a2a5b","shape_key":"709e4"},
        {"id":"547912","direction":0,"start_time":54840,"stops_key":"f57ca","stop_distances":"543a6","stop_times":"ff0d7","stop_dwells":"a2a5b","shape_key":"709e4"},
        {"id":"547911","direction":0,"start_time":57780,"stops_key":"f57ca","stop_distances":"543a6","stop_times":"ff0d7","stop_dwells":"a2a5b","shape_key":"709e4"},
        {"id":"547910","direction":0,"start_time":60600,"stops_key":"f57ca","stop_distances":"543a6","stop_times":"cacfb","stop_dwells":"a2a5b","shape_key":"709e4"},
        {"id":"547909","direction":0,"start_time":63660,"stops_key":"f57ca","stop_distances":"543a6","stop_times":"cacfb","stop_dwells":"a2a5b","shape_key":"709e4"},
        {"id":"547939","direction":1,"start_time":21600,"stops_key":"52184","stop_distances":"b24fe","stop_times":"6ba13","stop_dwells":"f3ae5","shape_key":"d1829"},
        {"id":"547938","direction":1,"start_time":24300,"stops_key":"52184","stop_distances":"b24fe","stop_times":"6ba13","stop_dwells":"f3ae5","shape_key":"d1829"},
        {"id":"547937","direction":1,"start_time":27060,"stops_key":"52184","stop_distances":"b24fe","stop_times":"c0dec","stop_dwells":"f3ae5","shape_key":"d1829"},
        {"id":"547936","direction":1,"start_time":29760,"stops_key":"52184","stop_distances":"b24fe","stop_times":"c0dec","stop_dwells":"f3ae5","shape_key":"d1829"},
        {"id":"547935","direction":1,"start_time":32760,"stops_key":"52184","stop_distances":"b24fe","stop_times":"c0dec","stop_dwells":"f3ae5","shape_key":"d1829"},
        {"id":"547934","direction":1,"start_time":35700,"stops_key":"52184","stop_distances":"b24fe","stop_times":"c0dec","stop_dwells":"f3ae5","shape_key":"d1829"},
        {"id":"547933","direction":1,"start_time":38760,"stops_key":"52184","stop_distances":"b24fe","stop_times":"c0dec","stop_dwells":"f3ae5","shape_key":"d1829"},
        {"id":"547932","direction":1,"start_time":41580,"stops_key":"52184","stop_distances":"b24fe","stop_times":"3cabd","stop_dwells":"f3ae5","shape_key":"d1829"},
        {"id":"547931","direction":1,"start_time":44460,"stops_key":"52184","stop_distances":"b24fe","stop_times":"3cabd","stop_dwells":"f3ae5","shape_key":"d1829"},
        {"id":"547930","direction":1,"start_time":47280,"stops_key":"52184","stop_distances":"b24fe","stop_times":"3cabd","stop_dwells":"f3ae5","shape_key":"d1829"},
        {"id":"547929","direction":1,"start_time":50220,"stops_key":"52184","stop_distances":"b24fe","stop_times":"88766","stop_dwells":"f3ae5","shape_key":"d1829"},
        {"id":"547928","direction":1,"start_time":53160,"stops_key":"52184","stop_distances":"b24fe","stop_times":"88766","stop_dwells":"f3ae5","shape_key":"d1829"},
        {"id":"547927","direction":1,"start_time":56160,"stops_key":"52184","stop_distances":"b24fe","stop_times":"88766","stop_dwells":"f3ae5","shape_key":"d1829"},
        {"id":"547926","direction":1,"start_time":58980,"stops_key":"52184","stop_distances":"b24fe","stop_times":"88766","stop_dwells":"f3ae5","shape_key":"d1829"},
        {"id":"547925","direction":1,"start_time":61920,"stops_key":"52184","stop_distances":"b24fe","stop_times":"88766","stop_dwells":"f3ae5","shape_key":"d1829"},
        {"id":"547924","direction":1,"start_time":64800,"stops_key":"52184","stop_distances":"b24fe","stop_times":"42d4c","stop_dwells":"f3ae5","shape_key":"d1829"}
      ],
      "2": [
        {"id":"547880","direction":0,"start_time":23220,"stops_key":"f57ca","stop_distances":"543a6","stop_times":"25feb","stop_dwells":"a2a5b","shape_key":"709e4"},
        {"id":"547879","direction":0,"start_time":27120,"stops_key":"f57ca","stop_distances":"543a6","stop_times":"25feb","stop_dwells":"a2a5b","shape_key":"709e4"},
        {"id":"547878","direction":0,"start_time":31020,"stops_key":"f57ca","stop_distances":"543a6","stop_times":"25feb","stop_dwells":"a2a5b","shape_key":"709e4"},
        {"id":"547877","direction":0,"start_time":34980,"stops_key":"f57ca","stop_distances":"543a6","stop_times":"25feb","stop_dwells":"a2a5b","shape_key":"709e4"},
        {"id":"547876","direction":0,"start_time":38880,"stops_key":"f57ca","stop_distances":"543a6","stop_times":"25feb","stop_dwells":"a2a5b","shape_key":"709e4"},
        {"id":"547875","direction":0,"start_time":42120,"stops_key":"f57ca","stop_distances":"543a6","stop_times":"25feb","stop_dwells":"a2a5b","shape_key":"709e4"},
        {"id":"547874","direction":0,"start_time":44880,"stops_key":"f57ca","stop_distances":"543a6","stop_times":"25feb","stop_dwells":"a2a5b","shape_key":"709e4"},
        {"id":"547873","direction":0,"start_time":47580,"stops_key":"f57ca","stop_distances":"543a6","stop_times":"25feb","stop_dwells":"a2a5b","shape_key":"709e4"},
        {"id":"547872","direction":0,"start_time":50280,"stops_key":"f57ca","stop_distances":"543a6","stop_times":"25feb","stop_dwells":"a2a5b","shape_key":"709e4"},
        {"id":"547871","direction":0,"start_time":52980,"stops_key":"f57ca","stop_distances":"543a6","stop_times":"25feb","stop_dwells":"a2a5b","shape_key":"709e4"},
        {"id":"547870","direction":0,"start_time":55680,"stops_key":"f57ca","stop_distances":"543a6","stop_times":"25feb","stop_dwells":"a2a5b","shape_key":"709e4"},
        {"id":"547869","direction":0,"start_time":58380,"stops_key":"f57ca","stop_distances":"543a6","stop_times":"25feb","stop_dwells":"a2a5b","shape_key":"709e4"},
        {"id":"547868","direction":0,"start_time":61080,"stops_key":"f57ca","stop_distances":"543a6","stop_times":"25feb","stop_dwells":"a2a5b","shape_key":"709e4"},
        {"id":"547894","direction":1,"start_time":22920,"stops_key":"52184","stop_distances":"b24fe","stop_times":"6ba13","stop_dwells":"f3ae5","shape_key":"d1829"},
        {"id":"547893","direction":1,"start_time":27120,"stops_key":"52184","stop_distances":"b24fe","stop_times":"6ba13","stop_dwells":"f3ae5","shape_key":"d1829"},
        {"id":"547892","direction":1,"start_time":31020,"stops_key":"52184","stop_distances":"b24fe","stop_times":"6ba13","stop_dwells":"f3ae5","shape_key":"d1829"},
        {"id":"547891","direction":1,"start_time":34920,"stops_key":"52184","stop_distances":"b24fe","stop_times":"6ba13","stop_dwells":"f3ae5","shape_key":"d1829"},
        {"id":"547890","direction":1,"start_time":37800,"stops_key":"52184","stop_distances":"b24fe","stop_times":"6ba13","stop_dwells":"f3ae5","shape_key":"d1829"},
        {"id":"547889","direction":1,"start_time":40500,"stops_key":"52184","stop_distances":"b24fe","stop_times":"6ba13","stop_dwells":"f3ae5","shape_key":"d1829"},
        {"id":"547888","direction":1,"start_time":43200,"stops_key":"52184","stop_distances":"b24fe","stop_times":"666a5","stop_dwells":"f3ae5","shape_key":"d1829"},
        {"id":"547887","direction":1,"start_time":46020,"stops_key":"52184","stop_distances":"b24fe","stop_times":"666a5","stop_dwells":"f3ae5","shape_key":"d1829"},
        {"id":"547886","direction":1,"start_time":48780,"stops_key":"52184","stop_distances":"b24fe","stop_times":"666a5","stop_dwells":"f3ae5","shape_key":"d1829"},
        {"id":"547885","direction":1,"start_time":51480,"stops_key":"52184","stop_distances":"b24fe","stop_times":"666a5","stop_dwells":"f3ae5","shape_key":"d1829"},
        {"id":"547884","direction":1,"start_time":54180,"stops_key":"52184","stop_distances":"b24fe","stop_times":"666a5","stop_dwells":"f3ae5","shape_key":"d1829"},
        {"id":"547883","direction":1,"start_time":56880,"stops_key":"52184","stop_distances":"b24fe","stop_times":"666a5","stop_dwells":"f3ae5","shape_key":"d1829"},
        {"id":"547882","direction":1,"start_time":59580,"stops_key":"52184","stop_distances":"b24fe","stop_times":"666a5","stop_dwells":"f3ae5","shape_key":"d1829"},
        {"id":"547881","direction":1,"start_time":62280,"stops_key":"52184","stop_distances":"b24fe","stop_times":"666a5","stop_dwells":"f3ae5","shape_key":"d1829"}
      ],
      "3": [
        {"id":"547901","direction":0,"start_time":32520,"stops_key":"f57ca","stop_distances":"543a6","stop_times":"a0f53","stop_dwells":"a2a5b","shape_key":"709e4"},
        {"id":"547900","direction":0,"start_time":36420,"stops_key":"f57ca","stop_distances":"543a6","stop_times":"a0f53","stop_dwells":"a2a5b","shape_key":"709e4"},
        {"id":"547899","direction":0,"start_time":40320,"stops_key":"f57ca","stop_distances":"543a6","stop_times":"a0f53","stop_dwells":"a2a5b","shape_key":"709e4"},
        {"id":"547898","direction":0,"start_time":44220,"stops_key":"f57ca","stop_distances":"543a6","stop_times":"a0f53","stop_dwells":"a2a5b","shape_key":"709e4"},
        {"id":"547897","direction":0,"start_time":48120,"stops_key":"f57ca","stop_distances":"543a6","stop_times":"a0f53","stop_dwells":"a2a5b","shape_key":"709e4"},
        {"id":"547896","direction":0,"start_time":52020,"stops_key":"f57ca","stop_distances":"543a6","stop_times":"a0f53","stop_dwells":"a2a5b","shape_key":"709e4"},
        {"id":"547895","direction":0,"start_time":56040,"stops_key":"f57ca","stop_distances":"543a6","stop_times":"a0f53","stop_dwells":"a2a5b","shape_key":"709e4"},
        {"id":"547908","direction":1,"start_time":32100,"stops_key":"52184","stop_distances":"b24fe","stop_times":"87d30","stop_dwells":"f3ae5","shape_key":"d1829"},
        {"id":"547907","direction":1,"start_time":36300,"stops_key":"52184","stop_distances":"b24fe","stop_times":"87d30","stop_dwells":"f3ae5","shape_key":"d1829"},
        {"id":"547906","direction":1,"start_time":40200,"stops_key":"52184","stop_distances":"b24fe","stop_times":"87d30","stop_dwells":"f3ae5","shape_key":"d1829"},
        {"id":"547905","direction":1,"start_time":44100,"stops_key":"52184","stop_distances":"b24fe","stop_times":"666a5","stop_dwells":"f3ae5","shape_key":"d1829"},
        {"id":"547904","direction":1,"start_time":48000,"stops_key":"52184","stop_distances":"b24fe","stop_times":"666a5","stop_dwells":"f3ae5","shape_key":"d1829"},
        {"id":"547903","direction":1,"start_time":51900,"stops_key":"52184","stop_distances":"b24fe","stop_times":"666a5","stop_dwells":"f3ae5","shape_key":"d1829"},
        {"id":"547902","direction":1,"start_time":55800,"stops_key":"52184","stop_distances":"b24fe","stop_times":"666a5","stop_dwells":"f3ae5","shape_key":"d1829"}
      ]
    }
  }
}